[{"type": "business", "longitude": -73.8014812, "full_address": "199 Blvd Labelle\nRosem\u00e8re, QC J7A 2H2", "rest_id": 16103, "categories": ["Tapas Bars", "Restaurants"], "state": "QC", "open": true, "business_id": "fzrYgwwfIhNjbXpMr2-8fA", "neighborhoods": [], "review_count": 3, "attributes": {}, "hours": {"Sunday": {"open": "16:00", "close": "22:00"}, "Tuesday": {"open": "10:00", "close": "23:00"}, "Monday": {"open": "10:00", "close": "23:00"}, "Saturday": {"open": "16:00", "close": "03:00"}, "Friday": {"open": "10:00", "close": "03:00"}, "Wednesday": {"open": "10:00", "close": "23:00"}, "Thursday": {"open": "10:00", "close": "03:00"}}, "latitude": 45.6228517, "city": "Rosem\u00e8re", "name": "U&Mi", "stars": 3.5}, {"type": "business", "longitude": -73.8119906, "full_address": "2 Chemin de la Grande C\u00f4te\nRosem\u00e8re, QC J7A 3T3", "rest_id": 17876, "categories": ["Restaurants", "Italian"], "state": "QC", "open": true, "business_id": "YbtNwRIMi_m4gJmlSC_L8Q", "neighborhoods": [], "review_count": 3, "attributes": {"Good For": {"dessert": false, "brunch": false, "latenight": false, "breakfast": false, "lunch": false, "dinner": false}, "Price Range": 2, "Takes Reservations": true, "Attire": "dressy", "Accepts Credit Cards": true, "Good For Groups": true, "Take-out": true, "Good for Kids": true, "Delivery": false}, "hours": {}, "latitude": 45.6194784, "city": "Rosem\u00e8re", "name": "Piatti", "stars": 4.0}, {"type": "business", "longitude": -73.8139938, "full_address": "399 Boulevrd Labelle\nRosem\u00e8re, QC J7A 3V8", "rest_id": 20809, "categories": ["Italian", "Mediterranean", "Restaurants"], "state": "QC", "open": false, "business_id": "RrIDq5k56qozEBiixgy8jA", "neighborhoods": [], "review_count": 3, "attributes": {"Good For": {"brunch": false, "dessert": false, "latenight": false, "breakfast": false, "lunch": false, "dinner": false}, "Alcohol": "full_bar", "Accepts Credit Cards": true, "Delivery": false}, "hours": {}, "latitude": 45.6314577, "city": "Rosem\u00e8re", "name": "Restaurant Jalouse", "stars": 4.5}]