[{"business_id": "RT06SJHkloqMvNn1aXdpBw", "stars": 3.5, "categories": "#ffa037", "longitude": 10.0, "hours": [], "full_address": "6630 W Cactus Rd\nPeoria, AZ 85345", "attributes": [], "open": true, "latitude": 588.7525146366502, "neighborhoods": [], "name": "Lucky's Pizza", "review_count": 18, "type": "business", "city": "Peoria", "rest_id": 0, "state": "AZ"}, {"business_id": "1WTH8nYiGOMUe32q7WDx7Q", "stars": 3.0, "categories": "#fe3e64", "longitude": 246.20261649700475, "hours": [], "full_address": "16233 N. 83rd Avenue\nPeoria, AZ 85382", "attributes": [], "open": true, "latitude": 502.0685042755511, "neighborhoods": [], "name": "Red Robin Gourmet Burgers", "review_count": 52, "type": "business", "city": "Peoria", "rest_id": 1, "state": "AZ"}, {"business_id": "hOTcQdhky7J2v0Phb2Ol4g", "stars": 3.5, "categories": "#fe3e64", "longitude": 282.46691190917966, "hours": [], "full_address": "8325 W Deer Valley Road\nPeoria, AZ 85382", "attributes": [], "open": true, "latitude": 397.42254388339455, "neighborhoods": [], "name": "McDonald's", "review_count": 6, "type": "business", "city": "Peoria", "rest_id": 2, "state": "AZ"}, {"business_id": "taMVl2KSfMqbInCrBUvJsg", "stars": 3.0, "categories": "#4ec8f7", "longitude": 279.8893739196797, "hours": [], "full_address": "20959 N 83rd Ave\nSte 106\nPeoria, AZ 85382", "attributes": [], "open": true, "latitude": 416.282557577882, "neighborhoods": [], "name": "Panda Express", "review_count": 3, "type": "business", "city": "Peoria", "rest_id": 3, "state": "AZ"}, {"business_id": "Zz43j-n7mRRgAan5M5Zmqg", "stars": 4.0, "categories": "#fe3e64", "longitude": 271.57178163671097, "hours": [], "full_address": "8248 W Deer Valley Rd\nPeoria, AZ 85382", "attributes": [], "open": true, "latitude": 392.82529711195434, "neighborhoods": [], "name": "Subway", "review_count": 5, "type": "business", "city": "Peoria", "rest_id": 4, "state": "AZ"}, {"business_id": "dlBKl_UBkiAol4KgCUG5uw", "stars": 3.0, "categories": "#fe3e64", "longitude": 266.42760587482724, "hours": [], "full_address": "8359 W Bell Rd\nPeoria, AZ 85382", "attributes": [], "open": true, "latitude": 495.4596941564903, "neighborhoods": [], "name": "IHOP", "review_count": 21, "type": "business", "city": "Peoria", "rest_id": 5, "state": "AZ"}, {"business_id": "I2v6oOTiN5kp6jxCOAWTiw", "stars": 4.0, "categories": "#ffa037", "longitude": 262.4344930323307, "hours": [], "full_address": "8349 W Bell Rd\nPeoria, AZ 85382", "attributes": [], "open": true, "latitude": 495.44503097183735, "neighborhoods": [], "name": "Cucina Tagliani", "review_count": 93, "type": "business", "city": "Peoria", "rest_id": 6, "state": "AZ"}, {"business_id": "cHxDyQWXyFDhfEYJbmS1LA", "stars": 3.5, "categories": "#fe3e64", "longitude": 354.4114065155168, "hours": [], "full_address": "7635 W Bell Rd\nSte 101\nPeoria, AZ 85382", "attributes": [], "open": false, "latitude": 466.0401222122782, "neighborhoods": [], "name": "Barbeques Galore", "review_count": 4, "type": "business", "city": "Peoria", "rest_id": 7, "state": "AZ"}, {"business_id": "1oFvqm7eSpJbVpxpPxueaA", "stars": 3.0, "categories": "#ffa037", "longitude": 270.0406644831302, "hours": [], "full_address": "16091 N Arrowhead Fountains Ctr Dr\nPeoria, AZ 85382", "attributes": [], "open": true, "latitude": 507.1832486716927, "neighborhoods": [], "name": "Buca di Beppo Italian Restaurant", "review_count": 85, "type": "business", "city": "Peoria", "rest_id": 8, "state": "AZ"}, {"business_id": "KwoHV8oqC_aFHoZpbOM9XA", "stars": 4.0, "categories": "#fe3e64", "longitude": 280.0179964807619, "hours": [], "full_address": "8320 W Mariners Way\nPeoria, AZ 85382", "attributes": [], "open": false, "latitude": 514.6650822465328, "neighborhoods": [], "name": "Fox Hound Smokehouse & Tavern", "review_count": 5, "type": "business", "city": "Peoria", "rest_id": 9, "state": "AZ"}, {"business_id": "NA3tQYxR6Fq5O8nV6u41Tw", "stars": 3.5, "categories": "#fe3e64", "longitude": 276.08737821597094, "hours": [], "full_address": "16079 N. Arrowhead Fountains Center Dr\nPeoria, AZ 85382", "attributes": [], "open": true, "latitude": 507.71653741832563, "neighborhoods": [], "name": "Texas Roadhouse", "review_count": 108, "type": "business", "city": "Peoria", "rest_id": 10, "state": "AZ"}, {"business_id": "rDanxbBDdAkwbopKNbkAiQ", "stars": 3.5, "categories": "#fe3e64", "longitude": 217.40133635176016, "hours": [], "full_address": "7921 West Bell Rd.\nPeoria, AZ 85382", "attributes": [], "open": true, "latitude": 495.241325498828, "neighborhoods": [], "name": "Red Lobster", "review_count": 32, "type": "business", "city": "Peoria", "rest_id": 11, "state": "AZ"}, {"business_id": "OjI5vCMO-5ID2PjFCzrJhA", "stars": 1.5, "categories": "#fe3e64", "longitude": 239.11311533391583, "hours": [], "full_address": "8225 W Bell Rd\nPeoria, AZ 85382", "attributes": [], "open": true, "latitude": 495.27335891760885, "neighborhoods": [], "name": "Jack-In-the Box Drive Thru", "review_count": 5, "type": "business", "city": "Peoria", "rest_id": 12, "state": "AZ"}, {"business_id": "OqRD-pLL7JNyYvmbcNmaDQ", "stars": 2.5, "categories": "#00b5e9", "longitude": 153.3720080943399, "hours": [], "full_address": "16610 N 75th Ave\nSte 104\nPeoria, AZ 85382", "attributes": [], "open": true, "latitude": 502.11091471732965, "neighborhoods": [], "name": "Ah-So Sushi & Steak", "review_count": 77, "type": "business", "city": "Peoria", "rest_id": 13, "state": "AZ"}, {"business_id": "yl0jTEkeqQwSQvHjdBAxgw", "stars": 3.5, "categories": "#ffa037", "longitude": 389.44745539255155, "hours": [], "full_address": "8996 W Union Hills Drive\nPeoria, AZ 85382", "attributes": [], "open": true, "latitude": 461.27123839552553, "neighborhoods": [], "name": "Grande Pizza", "review_count": 15, "type": "business", "city": "Peoria", "rest_id": 14, "state": "AZ"}, {"business_id": "8dEJ_o0UgGrNX1ejHcuZjA", "stars": 4.0, "categories": "#fe3e64", "longitude": 281.2439075572598, "hours": [], "full_address": "16067 N Arrowhead Fountains Ctr Dr\nPeoria, AZ 85382", "attributes": [], "open": true, "latitude": 510.61240359454285, "neighborhoods": [], "name": "Firebirds Wood Fired Grill", "review_count": 139, "type": "business", "city": "Peoria", "rest_id": 15, "state": "AZ"}, {"business_id": "N13sN1m2zZNJDgRBlP8RYA", "stars": 4.0, "categories": "#d73765", "longitude": 136.51155237628697, "hours": [], "full_address": "7407 West Bell Rd\nPeoria, AZ 85382", "attributes": [], "open": true, "latitude": 494.681643019807, "neighborhoods": [], "name": "Rubio's Fresh Mexican Grill", "review_count": 13, "type": "business", "city": "Peoria", "rest_id": 16, "state": "AZ"}, {"business_id": "lvs-_6i0mjahtOvOvmhNKg", "stars": 2.5, "categories": "#fe3e64", "longitude": 268.90631522980874, "hours": [], "full_address": "16140 N Arrowhead Fountains Center Dr\nPeoria, AZ 85382", "attributes": [], "open": false, "latitude": 503.2212561771275, "neighborhoods": [], "name": "Arizona BBQ Restaurant", "review_count": 3, "type": "business", "city": "Peoria", "rest_id": 17, "state": "AZ"}, {"business_id": "ADJIoHN3uLx-JalYl3r3Dw", "stars": 3.5, "categories": "#fe3e64", "longitude": 266.8142002391666, "hours": [], "full_address": "16134 North 83rd Avenue\nPeoria, AZ 85382", "attributes": [], "open": true, "latitude": 505.13829838055386, "neighborhoods": [], "name": "The Cheesecake Factory", "review_count": 110, "type": "business", "city": "Peoria", "rest_id": 18, "state": "AZ"}, {"business_id": "iPOvppPpoMPUMPyVN81JLQ", "stars": 3.0, "categories": "#fe3e64", "longitude": 252.49131504812988, "hours": [], "full_address": "16550 N 83rd Ave\nPeoria, AZ 85381", "attributes": [], "open": true, "latitude": 499.40612111658294, "neighborhoods": [], "name": "Hooters", "review_count": 33, "type": "business", "city": "Peoria", "rest_id": 19, "state": "AZ"}, {"business_id": "SkcccvAydbt5zlQI0EUL2g", "stars": 4.5, "categories": "#955542", "longitude": 129.8057388530626, "hours": [], "full_address": "7369 W Bell Rd\nPeoria, AZ 85382", "attributes": [], "open": true, "latitude": 495.3162205343053, "neighborhoods": [], "name": "Greek Wraps", "review_count": 221, "type": "business", "city": "Peoria", "rest_id": 20, "state": "AZ"}, {"business_id": "IRUsIQSgjkk7Ah5RBsIfJg", "stars": 4.5, "categories": "#ffa037", "longitude": 293.0837233064479, "hours": [], "full_address": "8385 W Deer Valley Rd\nPeoria, AZ 85382", "attributes": [], "open": true, "latitude": 397.40900863602013, "neighborhoods": [], "name": "Ray's Pizza", "review_count": 40, "type": "business", "city": "Peoria", "rest_id": 21, "state": "AZ"}, {"business_id": "7wbX2EjufRG7AtvUwJTFxw", "stars": 3.5, "categories": "#fe3e64", "longitude": 415.9291693515534, "hours": [], "full_address": "9119 W Union Hills Dr\nPeoria, AZ 85382", "attributes": [], "open": true, "latitude": 461.61119869213087, "neighborhoods": [], "name": "McDonald's", "review_count": 3, "type": "business", "city": "Peoria", "rest_id": 22, "state": "AZ"}, {"business_id": "Me1m-be0Mk3OylUMSZusIw", "stars": 4.0, "categories": "#ffa037", "longitude": 414.29195675211236, "hours": [], "full_address": "9249 W Union Hills Dr\nSte 202\nPeoria, AZ 85382", "attributes": [], "open": true, "latitude": 463.00984092103624, "neighborhoods": [], "name": "Streets of New York", "review_count": 13, "type": "business", "city": "Peoria", "rest_id": 23, "state": "AZ"}, {"business_id": "v_XRRT2q4BNrzR3lt34dwg", "stars": 1.0, "categories": "#fe3e64", "longitude": 226.07645575359743, "hours": [], "full_address": "8001 W Bell Road\nPeoria, AZ 85382", "attributes": [], "open": true, "latitude": 495.36810564924593, "neighborhoods": [], "name": "Applebee's", "review_count": 3, "type": "business", "city": "Peoria", "rest_id": 24, "state": "AZ"}, {"business_id": "BpWeAIGCrl5jxt-sMJgDsg", "stars": 3.5, "categories": "#d73765", "longitude": 276.1351210430742, "hours": [], "full_address": "16092 N Arrowhead Fountains Center Dr\nPeoria, AZ 85382", "attributes": [], "open": true, "latitude": 505.2909733187325, "neighborhoods": [], "name": "Abuelo's", "review_count": 151, "type": "business", "city": "Peoria", "rest_id": 25, "state": "AZ"}, {"business_id": "ZzYf1rngz1fDYJTgNDetDA", "stars": 3.0, "categories": "#fe3e64", "longitude": 374.98868082898747, "hours": [], "full_address": "8922 West Bell Road\nPeoria, AZ 85382", "attributes": [], "open": true, "latitude": 493.2006613693444, "neighborhoods": [], "name": "Whataburger", "review_count": 17, "type": "business", "city": "Peoria", "rest_id": 26, "state": "AZ"}, {"business_id": "9vUZ2CPTDG7Ppy-f3Dm6hQ", "stars": 3.5, "categories": "#4ec8f7", "longitude": 414.46127345677115, "hours": [], "full_address": "9163 W Union Hills Dr\nPeoria, AZ 85382", "attributes": [], "open": true, "latitude": 464.12198708047333, "neighborhoods": [], "name": "China 7 Chinese Cuisine", "review_count": 12, "type": "business", "city": "Peoria", "rest_id": 27, "state": "AZ"}, {"business_id": "K3ixgWzwRVWYt3Kc1JqQ9A", "stars": 4.0, "categories": "#fe3e64", "longitude": 373.8713276809942, "hours": [], "full_address": "8940 W Bell Rd\nPeoria, AZ 85382", "attributes": [], "open": true, "latitude": 490.98319769737475, "neighborhoods": [], "name": "Mr. Goodcents", "review_count": 8, "type": "business", "city": "Peoria", "rest_id": 28, "state": "AZ"}, {"business_id": "70t-ybLLFRTEKZ28sRCH2w", "stars": 2.5, "categories": "#ffa037", "longitude": 384.65281325699823, "hours": [], "full_address": "8960 W Bell Rd\nSte 110\nPeoria, AZ 85382", "attributes": [], "open": true, "latitude": 490.4029257366159, "neighborhoods": [], "name": "Fuzzy's Chicago Style Pizza", "review_count": 32, "type": "business", "city": "Peoria", "rest_id": 29, "state": "AZ"}, {"business_id": "3FUN6EfHhAHlPgN0hX2DaA", "stars": 4.5, "categories": "#fe3e64", "longitude": 405.1931822479268, "hours": [], "full_address": "10320 N 91st Ave\nPeoria, AZ 85345", "attributes": [], "open": true, "latitude": 629.7018264622033, "neighborhoods": [], "name": "Arby's", "review_count": 3, "type": "business", "city": "Peoria", "rest_id": 30, "state": "AZ"}, {"business_id": "5lQatU1Kf-W-rUavMjJhfQ", "stars": 4.0, "categories": "#4ec8f7", "longitude": 160.26312530719588, "hours": [], "full_address": "7530 W Peoria Ave\nSte A\nPeoria, AZ 85345", "attributes": [], "open": true, "latitude": 620.5635041959348, "neighborhoods": [], "name": "Big Heng", "review_count": 80, "type": "business", "city": "Peoria", "rest_id": 31, "state": "AZ"}, {"business_id": "wPMKAGNsLXNr-A4_ctxU_Q", "stars": 3.0, "categories": "#ffa037", "longitude": 33.946323475367635, "hours": [], "full_address": "6750 W. Peoria Ave.\n#111\nPeoria, AZ 85345", "attributes": [], "open": true, "latitude": 619.1095930402371, "neighborhoods": [], "name": "Pizza Hut", "review_count": 5, "type": "business", "city": "Peoria", "rest_id": 32, "state": "AZ"}, {"business_id": "YsjOZJ6eJQfvhTRvTF5nhw", "stars": 2.0, "categories": "#fe3e64", "longitude": 277.1141786612463, "hours": [], "full_address": "10969 N 83rd Ave\nPeoria, AZ 85345", "attributes": [], "open": true, "latitude": 615.5683211516221, "neighborhoods": [], "name": "Sonic Drive-In", "review_count": 5, "type": "business", "city": "Peoria", "rest_id": 33, "state": "AZ"}, {"business_id": "2eedL3hDviwReK0w1NkRIw", "stars": 4.0, "categories": "#ffa037", "longitude": 29.474327764262345, "hours": [], "full_address": "6750 W Olive Ave\nPeoria, AZ 85345", "attributes": [], "open": true, "latitude": 652.1897376285182, "neighborhoods": [], "name": "Brunos Pizza", "review_count": 10, "type": "business", "city": "Peoria", "rest_id": 34, "state": "AZ"}, {"business_id": "q-UtIUIsL6W7_fxuxBfxeA", "stars": 2.0, "categories": "#fe3e64", "longitude": 349.0018367236704, "hours": [], "full_address": "8465 W Grand Ave\nPeoria, AZ 85345", "attributes": [], "open": true, "latitude": 648.8487874010768, "neighborhoods": [], "name": "Church's Chicken", "review_count": 4, "type": "business", "city": "Peoria", "rest_id": 35, "state": "AZ"}, {"business_id": "0SI_lD1xTb6hUqpruo6ovw", "stars": 3.0, "categories": "#fe3e64", "longitude": 34.01463150222938, "hours": [], "full_address": "6750 W Peoria Ave\nPeoria, AZ 85345", "attributes": [], "open": true, "latitude": 619.3306687473903, "neighborhoods": [], "name": "Gallagher's Food & Fun", "review_count": 14, "type": "business", "city": "Peoria", "rest_id": 36, "state": "AZ"}, {"business_id": "txOMZiCpQwI4qydicluM3g", "stars": 4.0, "categories": "#fe3e64", "longitude": 341.48795377714026, "hours": [], "full_address": "8737 W Grand Ave\nPeoria, AZ 85345", "attributes": [], "open": true, "latitude": 606.2984813983305, "neighborhoods": [], "name": "Dennys", "review_count": 5, "type": "business", "city": "Peoria", "rest_id": 37, "state": "AZ"}, {"business_id": "5G_oPzPhlTJ1zMmqywWOUw", "stars": 3.0, "categories": "#d73765", "longitude": 344.21300803727326, "hours": [], "full_address": "8777 W Grand Ave\nPeoria, AZ 85345", "attributes": [], "open": true, "latitude": 605.5247164233024, "neighborhoods": [], "name": "Filiberto's Mexican Food", "review_count": 6, "type": "business", "city": "Peoria", "rest_id": 38, "state": "AZ"}, {"business_id": "k14-CYr2UDE-B5qc3Q9CYQ", "stars": 3.5, "categories": "#d73765", "longitude": 293.16801831828246, "hours": [], "full_address": "8420 W Peoria Ave\nPeoria, AZ 85345", "attributes": [], "open": true, "latitude": 621.0830321077343, "neighborhoods": [], "name": "Don Lencho's", "review_count": 29, "type": "business", "city": "Peoria", "rest_id": 39, "state": "AZ"}, {"business_id": "GZ9Bzur_XJGGu_oD5BOkOw", "stars": 2.5, "categories": "#d73765", "longitude": 385.6578132681446, "hours": [], "full_address": "8987 W Olive Avenue\nPeoria, AZ 85345", "attributes": [], "open": true, "latitude": 656.2507630164077, "neighborhoods": [], "name": "Ramiros Mexican Food", "review_count": 3, "type": "business", "city": "Peoria", "rest_id": 40, "state": "AZ"}, {"business_id": "6MxbrPOLk6UNDiET8ZEGog", "stars": 3.0, "categories": "#ffa037", "longitude": 42.00812399846112, "hours": [], "full_address": "6821 W Peoria Ave\nPeoria, AZ 85345", "attributes": [], "open": true, "latitude": 624.2394517959495, "neighborhoods": [], "name": "Peter Piper Pizza", "review_count": 12, "type": "business", "city": "Peoria", "rest_id": 41, "state": "AZ"}, {"business_id": "8QLxPr5UaeuZrTMYulGzdQ", "stars": 3.5, "categories": "#4ec8f7", "longitude": 423.9299286591271, "hours": [], "full_address": "9230 W Northern Avenue\nPeoria, AZ 85345", "attributes": [], "open": true, "latitude": 688.2004888612884, "neighborhoods": [], "name": "Panda Express", "review_count": 4, "type": "business", "city": "Peoria", "rest_id": 42, "state": "AZ"}, {"business_id": "68mm1E5mTzMjEylitv4hlw", "stars": 3.0, "categories": "#d73765", "longitude": 32.16159460529351, "hours": [], "full_address": "6745 W Peoria Ave\nPeoria, AZ 85345", "attributes": [], "open": true, "latitude": 621.7151281602166, "neighborhoods": [], "name": "Taco Bell", "review_count": 7, "type": "business", "city": "Peoria", "rest_id": 43, "state": "AZ"}, {"business_id": "6eF3g32tGeeq5dfGqtcnuQ", "stars": 3.0, "categories": "#4ec8f7", "longitude": 26.87135593506577, "hours": [], "full_address": "6725 W Peoria Ave\nPeoria, AZ 85345", "attributes": [], "open": true, "latitude": 624.255242917881, "neighborhoods": [], "name": "China Place", "review_count": 20, "type": "business", "city": "Peoria", "rest_id": 44, "state": "AZ"}, {"business_id": "rhN7xg5XzvRKvdAXE9lBtA", "stars": 3.5, "categories": "#fe3e64", "longitude": 27.72157286423717, "hours": [], "full_address": "6750 W Olive Ave\nSte 102\nPeoria, AZ 85345", "attributes": [], "open": true, "latitude": 652.2258316215274, "neighborhoods": [], "name": "Q Bar and Grill", "review_count": 22, "type": "business", "city": "Peoria", "rest_id": 45, "state": "AZ"}, {"business_id": "FPYCxEUERQwz6QLRKQtg8A", "stars": 2.0, "categories": "#fe3e64", "longitude": 26.667885216976114, "hours": [], "full_address": "6710 W Peoria Ave\nPeoria, AZ 85345", "attributes": [], "open": true, "latitude": 617.0206531951234, "neighborhoods": [], "name": "McDonald's", "review_count": 7, "type": "business", "city": "Peoria", "rest_id": 46, "state": "AZ"}, {"business_id": "GMcqokLizYYEOxAT3J_4_w", "stars": 3.5, "categories": "#4ec8f7", "longitude": 344.81615338009703, "hours": [], "full_address": "8738 W Cholla St\nPeoria, AZ 85345", "attributes": [], "open": true, "latitude": 607.7805909860556, "neighborhoods": [], "name": "Bobo China", "review_count": 18, "type": "business", "city": "Peoria", "rest_id": 47, "state": "AZ"}, {"business_id": "7Yr8FRINq9ZDdR30OLtEHg", "stars": 4.0, "categories": "#4ec8f7", "longitude": 287.3647427660151, "hours": [], "full_address": "8987 W Olive Ave\nSte 126\nPeoria, AZ 85345", "attributes": [], "open": false, "latitude": 632.5305323265912, "neighborhoods": [], "name": "Good China Restaurant", "review_count": 10, "type": "business", "city": "Peoria", "rest_id": 48, "state": "AZ"}, {"business_id": "0SGgz8jHkSCcxcYOXOAkLw", "stars": 4.5, "categories": "#ffd84f", "longitude": 514.80503812477, "hours": [], "full_address": "9814 W Peoria Ave\nPeoria, AZ 85345", "attributes": [], "open": false, "latitude": 624.5403854626119, "neighborhoods": [], "name": "Der Kaffee Kuchen", "review_count": 4, "type": "business", "city": "Peoria", "rest_id": 49, "state": "AZ"}, {"business_id": "cyxnQ6EocFbAENe7nRwx4Q", "stars": 4.0, "categories": "#fe3e64", "longitude": 500.1122722354596, "hours": [], "full_address": "9720 W Peoria Ave\nPeoria, AZ 85345", "attributes": [], "open": true, "latitude": 624.0224366630086, "neighborhoods": [], "name": "Mercer's Restaurant", "review_count": 22, "type": "business", "city": "Peoria", "rest_id": 50, "state": "AZ"}, {"business_id": "FB8rHyZSWZareFx9-bXGEw", "stars": 1.5, "categories": "#d73765", "longitude": 460.2697989095056, "hours": [], "full_address": "9440 W Peoria Ave\nPeoria, AZ 85345", "attributes": [], "open": false, "latitude": 623.5699082257206, "neighborhoods": [], "name": "Earl's Mexican-American Food", "review_count": 5, "type": "business", "city": "Peoria", "rest_id": 51, "state": "AZ"}, {"business_id": "wuudosx7qqxJgLr8wer8NQ", "stars": 2.5, "categories": "#fe3e64", "longitude": 264.2955234217013, "hours": [], "full_address": "8259 W Peoria Ave\nPeoria, AZ 85345", "attributes": [], "open": true, "latitude": 622.5741651937198, "neighborhoods": [], "name": "Wendy's", "review_count": 4, "type": "business", "city": "Peoria", "rest_id": 52, "state": "AZ"}, {"business_id": "gw-zDohfYJ3_RDlDd3faRw", "stars": 4.0, "categories": "#fe3e64", "longitude": 295.0007081433784, "hours": [], "full_address": "8405 W Peoria Ave\nPeoria, AZ 85345", "attributes": [], "open": true, "latitude": 622.8633683126628, "neighborhoods": [], "name": "Peoria Cafe", "review_count": 49, "type": "business", "city": "Peoria", "rest_id": 53, "state": "AZ"}, {"business_id": "Yi7YURdTAIb-evY9WbYLog", "stars": 4.0, "categories": "#ffa037", "longitude": 143.45063054416477, "hours": [], "full_address": "7440 W Cactus Rd\nSte A2\nPeoria, AZ 85381", "attributes": [], "open": true, "latitude": 586.1702150246662, "neighborhoods": [], "name": "Domino's Pizza", "review_count": 6, "type": "business", "city": "Peoria", "rest_id": 54, "state": "AZ"}, {"business_id": "61Vom2zpAp5yt0wcidRRCQ", "stars": 3.5, "categories": "#00b5e9", "longitude": 281.99456917071666, "hours": [], "full_address": "8345 W Thunderbird Rd\nPeoria, AZ 85381", "attributes": [], "open": true, "latitude": 561.059172916769, "neighborhoods": [], "name": "Sushi Yuki", "review_count": 25, "type": "business", "city": "Peoria", "rest_id": 55, "state": "AZ"}, {"business_id": "9-iaE233J-57BEpBFIpIuw", "stars": 2.5, "categories": "#fe3e64", "longitude": 158.48784329194885, "hours": [], "full_address": "7549 W Cactus Rd\nPeoria, AZ 85381", "attributes": [], "open": true, "latitude": 592.8559504663024, "neighborhoods": [], "name": "Subway", "review_count": 3, "type": "business", "city": "Peoria", "rest_id": 56, "state": "AZ"}, {"business_id": "kkW8Vi7ht4Btj2SdVdBPkw", "stars": 4.0, "categories": "#ffa037", "longitude": 143.59814681479784, "hours": [], "full_address": "7440 W Cactus Rd\nPeoria, AZ 85381", "attributes": [], "open": true, "latitude": 585.9933544589468, "neighborhoods": [], "name": "#1 Brothers Pizza", "review_count": 24, "type": "business", "city": "Peoria", "rest_id": 57, "state": "AZ"}, {"business_id": "oTbX18g48jcf9h-max38oQ", "stars": 4.0, "categories": "#4ec8f7", "longitude": 149.10130305794232, "hours": [], "full_address": "7420 W Cactus Rd\nPeoria, AZ 85381", "attributes": [], "open": true, "latitude": 589.4491287016281, "neighborhoods": [], "name": "Wing Hing", "review_count": 19, "type": "business", "city": "Peoria", "rest_id": 58, "state": "AZ"}, {"business_id": "dLlJZOtYxYwSoJ3Mke9TmA", "stars": 3.0, "categories": "#ffa037", "longitude": 281.99456917071666, "hours": [], "full_address": "8345 W Thunderbird Rd\nPeoria, AZ 85381", "attributes": [], "open": true, "latitude": 561.059172916769, "neighborhoods": [], "name": "Hungry Howie's Pizza", "review_count": 5, "type": "business", "city": "Peoria", "rest_id": 59, "state": "AZ"}, {"business_id": "HL_UIPnpucXrP7IHMoJGjA", "stars": 3.5, "categories": "#4ec8f7", "longitude": 143.67008824722726, "hours": [], "full_address": "7445 W Cactus Rd\nSte 207\nPeoria, AZ 85381", "attributes": [], "open": true, "latitude": 589.5968884854843, "neighborhoods": [], "name": "Chen & Wok", "review_count": 21, "type": "business", "city": "Peoria", "rest_id": 60, "state": "AZ"}, {"business_id": "uM8zS2iv5Pd_KhMBxjwQZQ", "stars": 3.5, "categories": "#fe3e64", "longitude": 340.46478673763914, "hours": [], "full_address": "8706 W Thunderbird Rd\nPeoria, AZ 85381", "attributes": [], "open": true, "latitude": 557.0387532710188, "neighborhoods": [], "name": "Dillon's Thunderbird", "review_count": 92, "type": "business", "city": "Peoria", "rest_id": 61, "state": "AZ"}, {"business_id": "iJVZqAGZok2JNID_zGjFpQ", "stars": 3.0, "categories": "#d73765", "longitude": 283.30768198352393, "hours": [], "full_address": "21910 N 83rd Ave\nPeoria, AZ 85383", "attributes": [], "open": true, "latitude": 395.13463590184455, "neighborhoods": [], "name": "Top Shelf Mexican Cantina", "review_count": 62, "type": "business", "city": "Peoria", "rest_id": 62, "state": "AZ"}, {"business_id": "GoS_IBdFdjZrQ7J2LSrCMA", "stars": 4.0, "categories": "#fe3e64", "longitude": 306.9866778032116, "hours": [], "full_address": "8415 W Carefree Hwy\nPeoria, AZ 85383", "attributes": [], "open": true, "latitude": 136.57677067883884, "neighborhoods": [], "name": "Wild Horse West", "review_count": 19, "type": "business", "city": "Peoria", "rest_id": 63, "state": "AZ"}, {"business_id": "R13Yzsye39_1StxO0X1Flg", "stars": 3.5, "categories": "#fe3e64", "longitude": 403.2863709470195, "hours": [], "full_address": "9098 W Pinnacle Peak Rd\nPeoria, AZ 85383", "attributes": [], "open": false, "latitude": 363.04820405845015, "neighborhoods": [], "name": "Campbell Mercantile Cafe", "review_count": 3, "type": "business", "city": "Peoria", "rest_id": 64, "state": "AZ"}, {"business_id": "WlHYCp12hzbbJY2B_xWpuA", "stars": 3.5, "categories": "#ffa037", "longitude": 226.70140153065344, "hours": [], "full_address": "8215 W Bell Rd\nSte 125\nPeoria, AZ 85382", "attributes": [], "open": false, "latitude": 497.8653587902139, "neighborhoods": [], "name": "Mike's Rigatoni Bistro", "review_count": 45, "type": "business", "city": "Peoria", "rest_id": 65, "state": "AZ"}, {"business_id": "sMO71vGV8wkKujOle3-v7g", "stars": 4.0, "categories": "#fe3e64", "longitude": 257.7815537183576, "hours": [], "full_address": "16148 N 83rd Ave\nPeoria, AZ 85382", "attributes": [], "open": true, "latitude": 504.32392766340246, "neighborhoods": [], "name": "Famous Dave's", "review_count": 120, "type": "business", "city": "Peoria", "rest_id": 66, "state": "AZ"}, {"business_id": "WM8sy8FjrU3PpxN_NI02ZA", "stars": 3.0, "categories": "#d73765", "longitude": 196.85660727406776, "hours": [], "full_address": "7873 W Bell Rd\nPeoria, AZ 85382", "attributes": [], "open": true, "latitude": 495.27561479218195, "neighborhoods": [], "name": "On The Border Mexican Grill & Cantina", "review_count": 68, "type": "business", "city": "Peoria", "rest_id": 67, "state": "AZ"}, {"business_id": "XGK7mKZJQtJa77Izhx6xyQ", "stars": 4.0, "categories": "#955542", "longitude": 288.36029592233444, "hours": [], "full_address": "8275 W Lake Pleasant Pkwy\nPeoria, AZ 85382", "attributes": [], "open": false, "latitude": 422.75150347405224, "neighborhoods": [], "name": "Royal Gyros", "review_count": 6, "type": "business", "city": "Peoria", "rest_id": 68, "state": "AZ"}, {"business_id": "mWwwyhwQedu6iR2_yVF-qQ", "stars": 2.0, "categories": "#fe3e64", "longitude": 226.70140153065344, "hours": [], "full_address": "8215 W Bell Rd\nSte 121\nPeoria, AZ 85382", "attributes": [], "open": true, "latitude": 497.8653587902139, "neighborhoods": [], "name": "Subway", "review_count": 6, "type": "business", "city": "Peoria", "rest_id": 69, "state": "AZ"}, {"business_id": "5Va2HCh_R2fhdGI15K32XA", "stars": 3.5, "categories": "#4ec8f7", "longitude": 410.9841042208923, "hours": [], "full_address": "9180 W Union Hills Dr\nPeoria, AZ 85382", "attributes": [], "open": true, "latitude": 460.26421599070727, "neighborhoods": [], "name": "Good China Restaurant", "review_count": 36, "type": "business", "city": "Peoria", "rest_id": 70, "state": "AZ"}, {"business_id": "XW65HO36L_KalDYKE1HEgQ", "stars": 3.5, "categories": "#fe3e64", "longitude": 409.99273434254076, "hours": [], "full_address": "9151 W Peoria Ave\nPeoria, AZ 85345", "attributes": [], "open": true, "latitude": 624.515790279698, "neighborhoods": [], "name": "Subway", "review_count": 3, "type": "business", "city": "Peoria", "rest_id": 71, "state": "AZ"}, {"business_id": "NrLDMGFcg56yv3mpsDilhQ", "stars": 1.0, "categories": "#fe3e64", "longitude": 400.0838871804636, "hours": [], "full_address": "9071 W Olive Avenue\nPeoria, AZ 85345", "attributes": [], "open": true, "latitude": 656.8424789142097, "neighborhoods": [], "name": "McDonald's", "review_count": 4, "type": "business", "city": "Peoria", "rest_id": 72, "state": "AZ"}, {"business_id": "J2vlvmOvgVmCy0GdNqJN8Q", "stars": 4.0, "categories": "#ffa037", "longitude": 293.22905953369906, "hours": [], "full_address": "8390 W Cactus Rd\nPeoria, AZ 85383", "attributes": [], "open": true, "latitude": 589.3523516828928, "neighborhoods": [], "name": "Barro's Pizza", "review_count": 30, "type": "business", "city": "Peoria", "rest_id": 73, "state": "AZ"}, {"business_id": "rkIK55cyfE8al9yub-4YHQ", "stars": 4.5, "categories": "#ffa037", "longitude": 165.89272406804062, "hours": [], "full_address": "7615 W Thunderbird Rd\nPeoria, AZ 85381", "attributes": [], "open": true, "latitude": 557.305848819261, "neighborhoods": [], "name": "Ballpark Pizza and Subs", "review_count": 31, "type": "business", "city": "Peoria", "rest_id": 74, "state": "AZ"}, {"business_id": "DAIBZ-I6i5wEUsxEolzXBA", "stars": 4.5, "categories": "#fe3e64", "longitude": 240.5519439832272, "hours": [], "full_address": "16657 N 83rd Ave\nPeoria, AZ 85382", "attributes": [], "open": true, "latitude": 499.28881563932714, "neighborhoods": [], "name": "Chick-fil-A", "review_count": 65, "type": "business", "city": "Peoria", "rest_id": 75, "state": "AZ"}, {"business_id": "1Q1hrAxT2X3lgxDLBOLEQA", "stars": 4.0, "categories": "#00b5e9", "longitude": 293.22251940345, "hours": [], "full_address": "8378 W Thunderbird Rd\nPeoria, AZ 85381", "attributes": [], "open": true, "latitude": 555.2579658911884, "neighborhoods": [], "name": "Kabuki Sushi & Grill", "review_count": 90, "type": "business", "city": "Peoria", "rest_id": 76, "state": "AZ"}, {"business_id": "6im1NjRqx5ih8I_B6qdQNg", "stars": 3.0, "categories": "#fe3e64", "longitude": 154.30942675982067, "hours": [], "full_address": "7515 W Bell Rd\nPeoria, AZ 85382", "attributes": [], "open": true, "latitude": 495.30042941235774, "neighborhoods": [], "name": "McDonald's", "review_count": 7, "type": "business", "city": "Peoria", "rest_id": 77, "state": "AZ"}, {"business_id": "mxVYNQUEIjLVSV3BhS7fDQ", "stars": 2.5, "categories": "#ffa037", "longitude": 153.59001243511335, "hours": [], "full_address": "7521 W Cactus Rd\nSte 3\nPeoria, AZ 85381", "attributes": [], "open": true, "latitude": 592.9049029443253, "neighborhoods": [], "name": "Little Caesars Pizza", "review_count": 7, "type": "business", "city": "Peoria", "rest_id": 78, "state": "AZ"}, {"business_id": "KRW_MPr8TCZhar5UaM8hmg", "stars": 2.5, "categories": "#fe3e64", "longitude": 414.46127345677115, "hours": [], "full_address": "9163 W Union Hills Dr\nPeoria, AZ 85382", "attributes": [], "open": true, "latitude": 464.12198708047333, "neighborhoods": [], "name": "Subway", "review_count": 3, "type": "business", "city": "Peoria", "rest_id": 79, "state": "AZ"}, {"business_id": "L1os37QpeFBNSxkhbv9sdQ", "stars": 3.5, "categories": "#ffa037", "longitude": 280.613875012347, "hours": [], "full_address": "8278 W Lake Pleasant Pkwy\nPeoria, AZ 85382", "attributes": [], "open": true, "latitude": 421.34834949601674, "neighborhoods": [], "name": "Sardella's Pizza & Wings", "review_count": 28, "type": "business", "city": "Peoria", "rest_id": 80, "state": "AZ"}, {"business_id": "NtmLlKfCFfM0K5j6WWKxQA", "stars": 3.5, "categories": "#fe3e64", "longitude": 285.75398231909486, "hours": [], "full_address": "8360 W Thunderbird Rd\nPeoria, AZ 85381", "attributes": [], "open": true, "latitude": 557.7339449459569, "neighborhoods": [], "name": "Heidi's Brooklyn Deli", "review_count": 70, "type": "business", "city": "Peoria", "rest_id": 81, "state": "AZ"}, {"business_id": "qofIz7YPyRqvs7YOjXjgvA", "stars": 3.0, "categories": "#ffa037", "longitude": 360.11982747073125, "hours": [], "full_address": "7525 W Bell Rd\nPeoria, AZ 85382", "attributes": [], "open": true, "latitude": 466.7997101864712, "neighborhoods": [], "name": "Peter Piper Pizza", "review_count": 12, "type": "business", "city": "Peoria", "rest_id": 82, "state": "AZ"}, {"business_id": "7LbqRnM6DPbLuBV4DGi5iA", "stars": 4.0, "categories": "#d73765", "longitude": 397.16626241935705, "hours": [], "full_address": "10590 N 90th Ave\nPeoria, AZ 85345", "attributes": [], "open": true, "latitude": 624.1990716412691, "neighborhoods": [], "name": "Taqueria Los Angeles", "review_count": 22, "type": "business", "city": "Peoria", "rest_id": 83, "state": "AZ"}, {"business_id": "5OX1kKlNHCaDmGq4qrFBmQ", "stars": 4.5, "categories": "#4ec8f7", "longitude": 134.97970854151006, "hours": [], "full_address": "7369 W Bell Rd\nSuite 1\nPeoria, AZ 85382", "attributes": [], "open": true, "latitude": 496.509578178005, "neighborhoods": [], "name": "Panda Express", "review_count": 9, "type": "business", "city": "Peoria", "rest_id": 84, "state": "AZ"}, {"business_id": "gZXcfapZG1jAcsjMR3lkgw", "stars": 4.0, "categories": "#ffa037", "longitude": 403.1170542422575, "hours": [], "full_address": "10006 N 91st Ave\nPeoria, AZ 85345", "attributes": [], "open": true, "latitude": 633.1474492693617, "neighborhoods": [], "name": "Peter Piper Pizza", "review_count": 7, "type": "business", "city": "Peoria", "rest_id": 85, "state": "AZ"}, {"business_id": "Evi6u84U3F6VhgriCDhQUg", "stars": 3.5, "categories": "#d73765", "longitude": 251.24869030556624, "hours": [], "full_address": "16680 N 83rd Ave\nPeoria, AZ 85382", "attributes": [], "open": true, "latitude": 497.8206924738783, "neighborhoods": [], "name": "Chipotle Mexican Grill", "review_count": 32, "type": "business", "city": "Peoria", "rest_id": 86, "state": "AZ"}, {"business_id": "SX8GyKnxVaVCfuPZkk2oaw", "stars": 3.0, "categories": "#ffa037", "longitude": 271.6320961710346, "hours": [], "full_address": "18913 N 83rd Ave\nPeoria, AZ 85382", "attributes": [], "open": true, "latitude": 454.6633306262844, "neighborhoods": [], "name": "Uncle Sam's", "review_count": 72, "type": "business", "city": "Peoria", "rest_id": 87, "state": "AZ"}, {"business_id": "QQplckr0yVO-8DSPFpbGBQ", "stars": 3.5, "categories": "#fe3e64", "longitude": 260.8307077651243, "hours": [], "full_address": "16844 N Arrowhead Fountain Center Dr\nPeoria, AZ 85382", "attributes": [], "open": false, "latitude": 496.41347792163043, "neighborhoods": [], "name": "SKYE", "review_count": 35, "type": "business", "city": "Peoria", "rest_id": 88, "state": "AZ"}, {"business_id": "nLLs9fIiWw6WDku3_2NVVA", "stars": 3.5, "categories": "#4ec8f7", "longitude": 151.60232697388938, "hours": [], "full_address": "7518 W Thunderbird Rd\nSte 3\nPeoria, AZ 85381", "attributes": [], "open": true, "latitude": 556.4073115981155, "neighborhoods": [], "name": "China Grill", "review_count": 47, "type": "business", "city": "Peoria", "rest_id": 89, "state": "AZ"}, {"business_id": "bDR6kF5Aw9guBkaahSAchw", "stars": 4.0, "categories": "#fe3e64", "longitude": 302.9665867564283, "hours": [], "full_address": "16845 N 84th Ave\nPeoria, AZ 85382", "attributes": [], "open": true, "latitude": 497.2292021635193, "neighborhoods": [], "name": "Cracker Barrel", "review_count": 66, "type": "business", "city": "Peoria", "rest_id": 90, "state": "AZ"}, {"business_id": "0bQiWdKxj2EmsGYRVC9qyA", "stars": 4.5, "categories": "#4272d7", "longitude": 640.278889838872, "hours": [], "full_address": "8877 N 107th Ave\nSte 309\nPeoria, AZ 85345", "attributes": [], "open": true, "latitude": 660.9856181361815, "neighborhoods": [], "name": "T & J Asian Cuisine", "review_count": 43, "type": "business", "city": "Peoria", "rest_id": 91, "state": "AZ"}, {"business_id": "tiWLO7EGmOGO7XIE_lESiA", "stars": 4.0, "categories": "#d73765", "longitude": 534.1471099223825, "hours": [], "full_address": "9940 W Happy Valley Pkwy\nPeoria, AZ 85383", "attributes": [], "open": true, "latitude": 330.255457889457, "neighborhoods": [], "name": "Chipotle Mexican Grill", "review_count": 16, "type": "business", "city": "Peoria", "rest_id": 92, "state": "AZ"}, {"business_id": "yyahaWDdm1Hes99IZkSJPg", "stars": 4.0, "categories": "#fe3e64", "longitude": 243.26755138853312, "hours": [], "full_address": "8285 W Bell Rd\nPeoria, AZ 85382", "attributes": [], "open": true, "latitude": 494.7687197779212, "neighborhoods": [], "name": "In-N-Out Burger", "review_count": 86, "type": "business", "city": "Peoria", "rest_id": 93, "state": "AZ"}, {"business_id": "tQTqlMW0sODNbe188ah1Yg", "stars": 3.5, "categories": "#955542", "longitude": 294.2246126900184, "hours": [], "full_address": "8378 W Thunderbird Rd\nPeoria, AZ 85381", "attributes": [], "open": true, "latitude": 554.9998938412064, "neighborhoods": [], "name": "Gyros Palace", "review_count": 33, "type": "business", "city": "Peoria", "rest_id": 94, "state": "AZ"}, {"business_id": "2mcmuAvpNIJuV3gV0v9v2A", "stars": 3.5, "categories": "#00c2d1", "longitude": 167.60333146220012, "hours": [], "full_address": "7582 W Cactus Rd\nSte B5\nPeoria, AZ 85381", "attributes": [], "open": true, "latitude": 589.7353991836374, "neighborhoods": [], "name": "Pholicious", "review_count": 103, "type": "business", "city": "Peoria", "rest_id": 95, "state": "AZ"}, {"business_id": "Eq6HUYlnhF__d1ie-I2RMg", "stars": 3.5, "categories": "#4ec8f7", "longitude": 257.4669007864477, "hours": [], "full_address": "16170 N 83rd Ave.\nPeoria, AZ 85382", "attributes": [], "open": true, "latitude": 502.2385972175832, "neighborhoods": [], "name": "P.F. Chang's", "review_count": 64, "type": "business", "city": "Peoria", "rest_id": 96, "state": "AZ"}, {"business_id": "Pq91OM8RI_Rcr6PpXQajsw", "stars": 2.5, "categories": "#d73765", "longitude": 208.8541128298089, "hours": [], "full_address": "8011 W Paradise Ln\nPeoria, AZ 85382", "attributes": [], "open": true, "latitude": 502.13798521207855, "neighborhoods": [], "name": "Salty Senorita", "review_count": 130, "type": "business", "city": "Peoria", "rest_id": 97, "state": "AZ"}, {"business_id": "EljtR0HL1PSNjm2CebisoA", "stars": 3.5, "categories": "#4ec8f7", "longitude": 164.02515354842095, "hours": [], "full_address": "7575 W Cactus Rd\nPeoria, AZ 85381", "attributes": [], "open": false, "latitude": 591.7932079597899, "neighborhoods": [], "name": "Hope Kee", "review_count": 22, "type": "business", "city": "Peoria", "rest_id": 98, "state": "AZ"}, {"business_id": "-uGyt_hSdjy4obBZRhOmRQ", "stars": 3.0, "categories": "#d73765", "longitude": 531.4002552282238, "hours": [], "full_address": "9868 W Northern Ave\nPeoria, AZ 85345", "attributes": [], "open": false, "latitude": 690.0, "neighborhoods": [], "name": "Sandbar Mexican Grill", "review_count": 62, "type": "business", "city": "Peoria", "rest_id": 99, "state": "AZ"}, {"business_id": "fM1IIa5mRAVoS10l0aFT1w", "stars": 3.5, "categories": "#ff9584", "longitude": 275.43990532379627, "hours": [], "full_address": "16100 Arrowhead Fountains Way\nPeoria, AZ 85385", "attributes": [], "open": false, "latitude": 505.8128048748148, "neighborhoods": [], "name": "Lis Doon Varna", "review_count": 39, "type": "business", "city": "Peoria", "rest_id": 100, "state": "AZ"}, {"business_id": "RdMnnZDQQxPPhhKEDkjGmw", "stars": 3.5, "categories": "#fe3e64", "longitude": 880.9055410919602, "hours": [], "full_address": "Safeway Shopping Center\n28465 N Vistancia Blvd, Ste 103\nPeoria, AZ 85383", "attributes": [], "open": false, "latitude": 261.51264351343576, "neighborhoods": [], "name": "The Tasting Room", "review_count": 12, "type": "business", "city": "Peoria", "rest_id": 101, "state": "AZ"}, {"business_id": "r4AG1WXCRWkZKQctrcy9FA", "stars": 4.0, "categories": "#ffa037", "longitude": 510.99504892862643, "hours": [], "full_address": "9788 W Northern Ave\nPeoria, AZ 85345", "attributes": [], "open": true, "latitude": 684.5448441323513, "neighborhoods": [], "name": "Grimaldi's Pizzeria", "review_count": 198, "type": "business", "city": "Peoria", "rest_id": 102, "state": "AZ"}, {"business_id": "0q98gY5I_5Ad_zLowCDkGA", "stars": 3.0, "categories": "#fe3e64", "longitude": 556.7716004114152, "hours": [], "full_address": "Lake Pleasant Towne Center\n9980 W Happy Valley Rd\nPeoria, AZ 85383", "attributes": [], "open": true, "latitude": 325.4032972924275, "neighborhoods": [], "name": "Lakeside Bar & Grill", "review_count": 65, "type": "business", "city": "Peoria", "rest_id": 103, "state": "AZ"}, {"business_id": "6v0vQm3wXzaFoEywvpbnqg", "stars": 3.5, "categories": "#fe3e64", "longitude": 506.6262419388034, "hours": [], "full_address": "9748 W. Northern Ave.\nPeoria, AZ 85345", "attributes": [], "open": true, "latitude": 687.6250152603358, "neighborhoods": [], "name": "BJ's Restaurant & Brewhouse", "review_count": 130, "type": "business", "city": "Peoria", "rest_id": 104, "state": "AZ"}, {"business_id": "JM6X0PJBcMkAjOuZqMaZsQ", "stars": 4.0, "categories": "#fe3e64", "longitude": 500.976296106222, "hours": [], "full_address": "9712 W Northern Ave\nPeoria, AZ 85345", "attributes": [], "open": true, "latitude": 688.4651029474986, "neighborhoods": [], "name": "Fleming's Prime Steakhouse & Wine Bar", "review_count": 124, "type": "business", "city": "Peoria", "rest_id": 105, "state": "AZ"}, {"business_id": "C_KNnklWpDle6mioOPwTJw", "stars": 3.0, "categories": "#ffa037", "longitude": 880.9055410919602, "hours": [], "full_address": "28465 N Vistancia Blvd\nPeoria, AZ 85383", "attributes": [], "open": false, "latitude": 261.51264351343576, "neighborhoods": [], "name": "Grande Pizza", "review_count": 6, "type": "business", "city": "Peoria", "rest_id": 106, "state": "AZ"}, {"business_id": "Nm9_4UEQgZ8nKTtgXKTNPQ", "stars": 2.5, "categories": "#fe3e64", "longitude": 250.05838660468496, "hours": [], "full_address": "16840 N 83rd Ave\nPeoria, AZ 85382", "attributes": [], "open": true, "latitude": 497.03294107655796, "neighborhoods": [], "name": "Tilted Kilt Pub & Eatery", "review_count": 103, "type": "business", "city": "Peoria", "rest_id": 107, "state": "AZ"}, {"business_id": "uyQ0mDz0OKEgUkBKWIl3og", "stars": 3.5, "categories": "#46d9f9", "longitude": 257.6391242157878, "hours": [], "full_address": "8350 W Paradise Ln\nPeoria, AZ 85382", "attributes": [], "open": false, "latitude": 500.5139811143488, "neighborhoods": [], "name": "Satara", "review_count": 107, "type": "business", "city": "Peoria", "rest_id": 108, "state": "AZ"}, {"business_id": "wK2RM163ByHaGixGn_UzuA", "stars": 3.0, "categories": "#00c2d1", "longitude": 164.02515354842095, "hours": [], "full_address": "7575 W Cactus Rd\nPeoria, AZ 85381", "attributes": [], "open": true, "latitude": 591.7932079597899, "neighborhoods": [], "name": "Our House", "review_count": 12, "type": "business", "city": "Peoria", "rest_id": 109, "state": "AZ"}, {"business_id": "vm9axJ4kMtJNns25FalL6w", "stars": 3.5, "categories": "#fe3e64", "longitude": 294.20207777024433, "hours": [], "full_address": "8378 W Thunderbird Rd\nPeoria, AZ 85381", "attributes": [], "open": true, "latitude": 554.9993524534185, "neighborhoods": [], "name": "FuNuGyz Sports Grill", "review_count": 52, "type": "business", "city": "Peoria", "rest_id": 110, "state": "AZ"}, {"business_id": "wBi8Sz3JKsglrYxXuRxYug", "stars": 4.5, "categories": "#ffa037", "longitude": 167.60333146220012, "hours": [], "full_address": "7582 W Cactus Rd\nPeoria, AZ 85381", "attributes": [], "open": false, "latitude": 589.7353991836374, "neighborhoods": [], "name": "Nicks Deli and Pizza", "review_count": 26, "type": "business", "city": "Peoria", "rest_id": 111, "state": "AZ"}, {"business_id": "6VpBO3WUToqfFQYEXnmD2A", "stars": 2.0, "categories": "#fe3e64", "longitude": 227.09235598175664, "hours": [], "full_address": "8001 W Bell Rd\nPeoria, AZ 85382", "attributes": [], "open": true, "latitude": 495.0468691115059, "neighborhoods": [], "name": "Applebee's", "review_count": 27, "type": "business", "city": "Peoria", "rest_id": 112, "state": "AZ"}, {"business_id": "brz0ho_6H2RBhNzl97veEw", "stars": 3.0, "categories": "#fe3e64", "longitude": 956.8480798933904, "hours": [], "full_address": "Trilogy Golf Club\n12575 W Golf Club Dr\nPeoria, AZ 85383", "attributes": [], "open": true, "latitude": 257.54659044465825, "neighborhoods": [], "name": "Verde Grill", "review_count": 14, "type": "business", "city": "Peoria", "rest_id": 113, "state": "AZ"}, {"business_id": "sJxTGpYzpN14aG0_pbc0kA", "stars": 3.0, "categories": "#4ec8f7", "longitude": 408.6972386857914, "hours": [], "full_address": "8914 N 91st Ave\nSte 130\nPeoria, AZ 85345", "attributes": [], "open": true, "latitude": 659.0922626156523, "neighborhoods": [], "name": "World Buffet", "review_count": 62, "type": "business", "city": "Peoria", "rest_id": 114, "state": "AZ"}, {"business_id": "zDyx_BL0RJbXWpXSFfrf8g", "stars": 3.5, "categories": "#ff9584", "longitude": 509.1565456544776, "hours": [], "full_address": "9780 W Northern Ave\nPeoria, AZ 85345", "attributes": [], "open": false, "latitude": 689.6652282148855, "neighborhoods": [], "name": "The Auld Dubliner", "review_count": 22, "type": "business", "city": "Peoria", "rest_id": 115, "state": "AZ"}, {"business_id": "8z2DkKf_FrPVNtt_5w4QsQ", "stars": 3.0, "categories": "#4ec8f7", "longitude": 497.9525758992551, "hours": [], "full_address": "9753 W. Happy Valley Road\nPeoria, AZ 85383", "attributes": [], "open": true, "latitude": 330.720393636841, "neighborhoods": [], "name": "Panda Express", "review_count": 11, "type": "business", "city": "Peoria", "rest_id": 116, "state": "AZ"}, {"business_id": "IQaND6HcN6NdtQ8QysO3Fg", "stars": 3.5, "categories": "#d73765", "longitude": 391.9486918627549, "hours": [], "full_address": "9030 W Peoria Ave\nPeoria, AZ 85345", "attributes": [], "open": true, "latitude": 622.4505432676785, "neighborhoods": [], "name": "Carolina's Mexican Food", "review_count": 127, "type": "business", "city": "Peoria", "rest_id": 117, "state": "AZ"}, {"business_id": "CBkGxR3tZjR91bmI0gUuBQ", "stars": 3.5, "categories": "#4ec8f7", "longitude": 390.33909314639243, "hours": [], "full_address": "9044 W Union Hills Dr\nSte 101\nPeoria, AZ 85382", "attributes": [], "open": true, "latitude": 460.53740240026, "neighborhoods": [], "name": "Shanghai Grill", "review_count": 38, "type": "business", "city": "Peoria", "rest_id": 118, "state": "AZ"}, {"business_id": "5_tsOGJQDDl9iKOr8K79Rw", "stars": 4.0, "categories": "#fe3e64", "longitude": 517.519918848983, "hours": [], "full_address": "9828 W Northern Ave\nSte 1705\nPeoria, AZ 85345", "attributes": [], "open": true, "latitude": 685.0803887535412, "neighborhoods": [], "name": "Blu Burger Grille", "review_count": 140, "type": "business", "city": "Peoria", "rest_id": 119, "state": "AZ"}, {"business_id": "X5ym_bvxZYMpe2ovDKWV7w", "stars": 4.5, "categories": "#ffa037", "longitude": 154.30070658618973, "hours": [], "full_address": "7557 W Greenway Rd.\nPeoria, AZ 85381", "attributes": [], "open": false, "latitude": 524.576041550567, "neighborhoods": [], "name": "Meatballz", "review_count": 16, "type": "business", "city": "Peoria", "rest_id": 120, "state": "AZ"}, {"business_id": "NmYTwkqyaCtEg3wifBkxkw", "stars": 3.0, "categories": "#4ec8f7", "longitude": 272.028864071294, "hours": [], "full_address": "8317 W Peoria Ave\nPeoria, AZ 85345", "attributes": [], "open": true, "latitude": 620.8874477831497, "neighborhoods": [], "name": "Wong's Jr", "review_count": 61, "type": "business", "city": "Peoria", "rest_id": 121, "state": "AZ"}, {"business_id": "wxQamxLLHo_2d5Kgs70kOw", "stars": 2.5, "categories": "#d73765", "longitude": 26.769620575969306, "hours": [], "full_address": "6730 W Cactus Rd\nPeoria, AZ 85381", "attributes": [], "open": true, "latitude": 587.8860332170992, "neighborhoods": [], "name": "3 Chiles Mexican Food", "review_count": 3, "type": "business", "city": "Peoria", "rest_id": 122, "state": "AZ"}, {"business_id": "59kTtQDwjH-z01r1KixdKQ", "stars": 4.0, "categories": "#d73765", "longitude": 153.8370840213577, "hours": [], "full_address": "10798 N 75th Ave\nSte A6\nPeoria, AZ 85345", "attributes": [], "open": true, "latitude": 617.7650918008295, "neighborhoods": [], "name": "Herreras Mexican Food", "review_count": 18, "type": "business", "city": "Peoria", "rest_id": 123, "state": "AZ"}, {"business_id": "U0Up9AYSClGwmuqo-ZJVzw", "stars": 4.0, "categories": "#d73765", "longitude": 285.36418959854944, "hours": [], "full_address": "20799 N 83rd Ave\nPeoria, AZ 85382", "attributes": [], "open": true, "latitude": 415.2802725096528, "neighborhoods": [], "name": "Ramiros Mexican Restaurant", "review_count": 27, "type": "business", "city": "Peoria", "rest_id": 124, "state": "AZ"}, {"business_id": "7uLwtXCNzGbdr9domSyZfQ", "stars": 3.0, "categories": "#d73765", "longitude": 546.1751360858835, "hours": [], "full_address": "10000 W Happy Valley Rd\nPeoria, AZ 85383", "attributes": [], "open": true, "latitude": 327.6264616740231, "neighborhoods": [], "name": "El Polio Loco", "review_count": 3, "type": "business", "city": "Peoria", "rest_id": 125, "state": "AZ"}, {"business_id": "U6WDGMA7Bqxqw_tDQjbsZA", "stars": 4.5, "categories": "#fe3e64", "longitude": 408.8512950866735, "hours": [], "full_address": "9133 W Thunderbird Rd\nPeoria, AZ 85381", "attributes": [], "open": false, "latitude": 559.6966246808728, "neighborhoods": [], "name": "Tony's Bagels Deli & Coffee", "review_count": 7, "type": "business", "city": "Peoria", "rest_id": 126, "state": "AZ"}, {"business_id": "Z4HFa4iFTAPomgQquOD68g", "stars": 1.0, "categories": "#fe3e64", "longitude": 390.6886267728261, "hours": [], "full_address": "9039 W Olive Ave\nPeoria, AZ 85345", "attributes": [], "open": true, "latitude": 656.7348736975749, "neighborhoods": [], "name": "KFC", "review_count": 6, "type": "business", "city": "Peoria", "rest_id": 127, "state": "AZ"}, {"business_id": "1v5Z101rbtRumsQTcm-GfQ", "stars": 3.0, "categories": "#fe3e64", "longitude": 637.3561783097023, "hours": [], "full_address": "10603 W Olive Ave\nPeoria, AZ 85345", "attributes": [], "open": true, "latitude": 658.1181759794506, "neighborhoods": [], "name": "IHOP", "review_count": 13, "type": "business", "city": "Peoria", "rest_id": 128, "state": "AZ"}, {"business_id": "AibBhSh7lGTcmy4EzWYTZQ", "stars": 2.0, "categories": "#ffa037", "longitude": 584.8854402018982, "hours": [], "full_address": "20340 N Lake Pleasant Rd\nSte 105\nPeoria, AZ 85382", "attributes": [], "open": true, "latitude": 426.1795304596239, "neighborhoods": [], "name": "Rosati's Pizza", "review_count": 3, "type": "business", "city": "Peoria", "rest_id": 129, "state": "AZ"}, {"business_id": "KkwfSSO6-W48ktRN2uHlTA", "stars": 2.0, "categories": "#fe3e64", "longitude": 534.2495719625718, "hours": [], "full_address": "24710 N Lake Pleasant Pkwy\nPeoria, AZ 85383", "attributes": [], "open": true, "latitude": 336.47806228338044, "neighborhoods": [], "name": "McDonald's", "review_count": 10, "type": "business", "city": "Peoria", "rest_id": 130, "state": "AZ"}, {"business_id": "2oYhEHgSDLqYXYlAqnChuw", "stars": 4.0, "categories": "#d73765", "longitude": 274.0810115994524, "hours": [], "full_address": "8248 W Deer Valley Rd\nPeoria, AZ 85382", "attributes": [], "open": true, "latitude": 392.7776981586849, "neighborhoods": [], "name": "Caminero Mexican Restaurant", "review_count": 43, "type": "business", "city": "Peoria", "rest_id": 131, "state": "AZ"}, {"business_id": "pONHXroA2O7grj5iZ7dksQ", "stars": 4.0, "categories": "#d73765", "longitude": 534.3062530911213, "hours": [], "full_address": "24920 N Lake Pleasant Parkway\nPeoria, AZ 85383", "attributes": [], "open": true, "latitude": 333.17252928657155, "neighborhoods": [], "name": "Rubio's Fresh Mexican Grill", "review_count": 26, "type": "business", "city": "Peoria", "rest_id": 132, "state": "AZ"}, {"business_id": "C43Cd23SLljV-0XJhmk4YQ", "stars": 3.0, "categories": "#d73765", "longitude": 528.4920773218411, "hours": [], "full_address": "9831 W. Happy Valley Rd.\nPeoria, AZ 85383", "attributes": [], "open": true, "latitude": 332.1239987897943, "neighborhoods": [], "name": "Taco Bell", "review_count": 7, "type": "business", "city": "Peoria", "rest_id": 133, "state": "AZ"}, {"business_id": "4t-W81Tpt1OER_p3mIgMDg", "stars": 3.5, "categories": "#fe3e64", "longitude": 534.3062530911213, "hours": [], "full_address": "24920 N Lake Pleasant Pkwy\nSte 102\nPeoria, AZ 85383", "attributes": [], "open": true, "latitude": 333.17252928657155, "neighborhoods": [], "name": "Subway", "review_count": 3, "type": "business", "city": "Peoria", "rest_id": 134, "state": "AZ"}, {"business_id": "kS3J2SwkKF4yX1OS5WgO1w", "stars": 5.0, "categories": "#ffa037", "longitude": 526.243725886935, "hours": [], "full_address": "25101 N Lake Pleasant Pkwy\nPeoria, AZ 85383", "attributes": [], "open": true, "latitude": 328.24502247913097, "neighborhoods": [], "name": "Papa John's Pizza", "review_count": 4, "type": "business", "city": "Peoria", "rest_id": 135, "state": "AZ"}, {"business_id": "PJMZjZ4xyx24VRIDU3q2sg", "stars": 3.0, "categories": "#ffa037", "longitude": 426.91440808480627, "hours": [], "full_address": "9240 W Northern Ave\nPeoria, AZ 85345", "attributes": [], "open": true, "latitude": 687.0651071938557, "neighborhoods": [], "name": "Streets of New York", "review_count": 21, "type": "business", "city": "Peoria", "rest_id": 136, "state": "AZ"}, {"business_id": "qK_nxiXCxjIP8Hd659bhvA", "stars": 3.0, "categories": "#ffa037", "longitude": 481.53321563070915, "hours": [], "full_address": "9815 W Happy Valley Rd\nPeoria, AZ 85383", "attributes": [], "open": true, "latitude": 330.77836961310817, "neighborhoods": [], "name": "1 Brother's Pizza", "review_count": 8, "type": "business", "city": "Peoria", "rest_id": 137, "state": "AZ"}, {"business_id": "x81TnVYj3TPf8SABV6_iFg", "stars": 3.5, "categories": "#c83f69", "longitude": 281.4539184055985, "hours": [], "full_address": "16041 N Arrowhead Fountain Center Dr\nSte 100\nPeoria, AZ 85382", "attributes": [], "open": false, "latitude": 512.0216484339048, "neighborhoods": [], "name": "Beauregard Food", "review_count": 28, "type": "business", "city": "Peoria", "rest_id": 138, "state": "AZ"}, {"business_id": "jwWyx8gEIhUNzBzyDzWjmQ", "stars": 2.0, "categories": "#fe3e64", "longitude": 410.85766170319204, "hours": [], "full_address": "40202 N 87th Ave\nPeoria, AZ 85383", "attributes": [], "open": true, "latitude": 10.0, "neighborhoods": [], "name": "Waterfront Bar & Grill", "review_count": 15, "type": "business", "city": "Peoria", "rest_id": 139, "state": "AZ"}, {"business_id": "7McTmo8UxlqUlvDNXcMOWA", "stars": 4.0, "categories": "#ffa037", "longitude": 559.8483683413638, "hours": [], "full_address": "9008 N 99th Ave\nPeoria, AZ 85345", "attributes": [], "open": true, "latitude": 656.3746105298919, "neighborhoods": [], "name": "Nino's Pizzeria", "review_count": 20, "type": "business", "city": "Peoria", "rest_id": 140, "state": "AZ"}, {"business_id": "PONDGYxI1dswoYjrzeljbA", "stars": 4.0, "categories": "#d73765", "longitude": 279.7425843302428, "hours": [], "full_address": "13972 N 83rd Ave\nPeoria, AZ 85381", "attributes": [], "open": true, "latitude": 554.2331220773244, "neighborhoods": [], "name": "Filiberto's", "review_count": 22, "type": "business", "city": "Peoria", "rest_id": 141, "state": "AZ"}, {"business_id": "gEgPQbren8pHSEQp3vqprg", "stars": 3.5, "categories": "#00b5e9", "longitude": 536.3576739381868, "hours": [], "full_address": "9947 W Happy Valley Pkwy\nSte 109\nPeoria, AZ 85383", "attributes": [], "open": true, "latitude": 330.7490432438022, "neighborhoods": [], "name": "Squid Ink Sushi Bar", "review_count": 134, "type": "business", "city": "Peoria", "rest_id": 142, "state": "AZ"}, {"business_id": "PAgCM-p-VqXIc5iVtTpx1g", "stars": 3.5, "categories": "#ffa037", "longitude": 296.39666260562797, "hours": [], "full_address": "8267 W. Lake Pleasant Pkwy\nPeoria, AZ 85382", "attributes": [], "open": true, "latitude": 418.5713679092677, "neighborhoods": [], "name": "Cousin Vinny", "review_count": 27, "type": "business", "city": "Peoria", "rest_id": 143, "state": "AZ"}, {"business_id": "Nqnsv188jpV-FdIVTuBjOQ", "stars": 4.0, "categories": "#ffa037", "longitude": 271.63936298237655, "hours": [], "full_address": "15703 N. 83rd Ave\nPeoria, AZ 85382", "attributes": [], "open": false, "latitude": 518.9916240704523, "neighborhoods": [], "name": "Prime Pizza", "review_count": 13, "type": "business", "city": "Peoria", "rest_id": 144, "state": "AZ"}, {"business_id": "mbwPTr1G1AtOWHbJtO-1CA", "stars": 4.0, "categories": "#fe3e64", "longitude": 458.8055364203943, "hours": [], "full_address": "13560 N 94th Dr\nPeoria, AZ 85381", "attributes": [], "open": false, "latitude": 564.8984458351287, "neighborhoods": [], "name": "Fratellos Cafe and Catering", "review_count": 4, "type": "business", "city": "Peoria", "rest_id": 145, "state": "AZ"}, {"business_id": "aDXJ0R_0NQYck2LHcmcA2Q", "stars": 3.5, "categories": "#fe3e64", "longitude": 554.0149599092497, "hours": [], "full_address": "10040 W Happy Valley Rd\nPeoria, AZ 85383", "attributes": [], "open": true, "latitude": 327.93943157138676, "neighborhoods": [], "name": "Chili's Grill & Bar", "review_count": 15, "type": "business", "city": "Peoria", "rest_id": 146, "state": "AZ"}, {"business_id": "mSvQyDPMMh3AP7sVTvAnBA", "stars": 3.5, "categories": "#fe3e64", "longitude": 261.97741059785096, "hours": [], "full_address": "8258 W Thunderbird Rd\nSte 206\nPeoria, AZ 85381", "attributes": [], "open": false, "latitude": 557.6408461918184, "neighborhoods": [], "name": "Carvers Steaks & Chops", "review_count": 12, "type": "business", "city": "Peoria", "rest_id": 147, "state": "AZ"}, {"business_id": "xbZo8aMOOobPRzHKqmA88g", "stars": 3.5, "categories": "#ffa037", "longitude": 535.0649081972196, "hours": [], "full_address": "24762 N Lake Pleasant Pkwy\nPeoria, AZ 85383", "attributes": [], "open": true, "latitude": 335.12814694502305, "neighborhoods": [], "name": "Barro's Pizza", "review_count": 31, "type": "business", "city": "Peoria", "rest_id": 148, "state": "AZ"}, {"business_id": "_yW2zLQAmqhj2m7rBbpFPw", "stars": 3.5, "categories": "#fe3e64", "longitude": 270.7019443168957, "hours": [], "full_address": "8271 W Ludlow Dr\nPeoria, AZ 85381", "attributes": [], "open": true, "latitude": 554.5464630540827, "neighborhoods": [], "name": "Culver's", "review_count": 29, "type": "business", "city": "Peoria", "rest_id": 149, "state": "AZ"}, {"business_id": "zpDJ3kZohKJWKsT3O8yi0A", "stars": 3.0, "categories": "#ffa037", "longitude": 205.99098915386995, "hours": [], "full_address": "7889 W Bell Rd\nPeoria, AZ 85382", "attributes": [], "open": true, "latitude": 495.30719703604495, "neighborhoods": [], "name": "Olive Garden Italian Restaurant", "review_count": 35, "type": "business", "city": "Peoria", "rest_id": 150, "state": "AZ"}, {"business_id": "YZbDLZp0zhmgnIPflNZZfA", "stars": 4.5, "categories": "#6c7ae0", "longitude": 177.05163959281938, "hours": [], "full_address": "7665 W Bell Rd\nSte 103\nPeoria, AZ 85382", "attributes": [], "open": true, "latitude": 496.66500793538415, "neighborhoods": [], "name": "Leo's Island BBQ", "review_count": 145, "type": "business", "city": "Peoria", "rest_id": 151, "state": "AZ"}, {"business_id": "YrTKu37eqg19i2-crujY9A", "stars": 4.0, "categories": "#46d9f9", "longitude": 155.98079337258932, "hours": [], "full_address": "7539 W Peoria Ave\nSte B104\nPeoria, AZ 85345", "attributes": [], "open": false, "latitude": 624.8507938024524, "neighborhoods": [], "name": "Anise Cafe", "review_count": 30, "type": "business", "city": "Peoria", "rest_id": 152, "state": "AZ"}, {"business_id": "dGjOCZsRnjdTlcIBDmAJjA", "stars": 3.5, "categories": "#d73765", "longitude": 891.5267125760956, "hours": [], "full_address": "28615 N El Mirage Rd\nPeoria, AZ 85383", "attributes": [], "open": false, "latitude": 260.3583124996791, "neighborhoods": [], "name": "Blu Agave Arizona Kitchen", "review_count": 17, "type": "business", "city": "Peoria", "rest_id": 153, "state": "AZ"}, {"business_id": "oTjwjLPGqqnh3coj0WQEEg", "stars": 3.0, "categories": "#00b5e9", "longitude": 534.655786717555, "hours": [], "full_address": "9940 W Happy Valley Rd\nSte 1060\nPeoria, AZ 85383", "attributes": [], "open": true, "latitude": 328.86380887169776, "neighborhoods": [], "name": "Fresh Wasabi", "review_count": 19, "type": "business", "city": "Peoria", "rest_id": 154, "state": "AZ"}, {"business_id": "SLIsUQDQ8vCmGlUFtuTVxA", "stars": 3.5, "categories": "#ffa037", "longitude": 534.655786717555, "hours": [], "full_address": "9940 W Happy Valley Pkwy\nSte 1080\nPeoria, AZ 85383", "attributes": [], "open": true, "latitude": 328.86380887169776, "neighborhoods": [], "name": "Twisted Italian", "review_count": 100, "type": "business", "city": "Peoria", "rest_id": 155, "state": "AZ"}, {"business_id": "tBpcKHlBJTwRLq6Q2gv1KA", "stars": 3.5, "categories": "#4272d7", "longitude": 293.0837233064479, "hours": [], "full_address": "8385 W Deer Valley Rd\nSte 114\nPeoria, AZ 85382", "attributes": [], "open": true, "latitude": 397.40900863602013, "neighborhoods": [], "name": "Tao Kitchen Asian Bistro", "review_count": 35, "type": "business", "city": "Peoria", "rest_id": 156, "state": "AZ"}, {"business_id": "LkPOyUOLFDKcQN7j7es3qg", "stars": 3.5, "categories": "#4ec8f7", "longitude": 153.3720080943399, "hours": [], "full_address": "13686 N 75th Ave\nPeoria, AZ 85381", "attributes": [], "open": false, "latitude": 559.7800920396925, "neighborhoods": [], "name": "Yu's Chinese Express", "review_count": 26, "type": "business", "city": "Peoria", "rest_id": 157, "state": "AZ"}, {"business_id": "KuZYMUUtzeSzliqAdCufNQ", "stars": 4.0, "categories": "#ffa037", "longitude": 389.1059152585526, "hours": [], "full_address": "9015 W Union Hills Dr\nPeoria, AZ 85382", "attributes": [], "open": true, "latitude": 463.1007526659199, "neighborhoods": [], "name": "Papa Murphys", "review_count": 4, "type": "business", "city": "Peoria", "rest_id": 158, "state": "AZ"}, {"business_id": "Gm5wFohKcnCTi6jlRP-6lQ", "stars": 5.0, "categories": "#ffa037", "longitude": 349.0018367236704, "hours": [], "full_address": "7465 W Cactus Rd\nPeoria, AZ 85345", "attributes": [], "open": true, "latitude": 648.8487874010768, "neighborhoods": [], "name": "Papa Murphys Take N Bake Pizza", "review_count": 10, "type": "business", "city": "Peoria", "rest_id": 159, "state": "AZ"}, {"business_id": "MLzh2-7zSnPdFmNcuSaaJQ", "stars": 3.0, "categories": "#ffa037", "longitude": 276.23198776202594, "hours": [], "full_address": "16091 N Arrowhead Fountains Ctr Dr\nPeoria, AZ 85382", "attributes": [], "open": true, "latitude": 452.6779354236091, "neighborhoods": [], "name": "Bucca di Beppo", "review_count": 17, "type": "business", "city": "Peoria", "rest_id": 160, "state": "AZ"}, {"business_id": "7Y1lfzFkwBRoMZKIMMeZMw", "stars": 3.5, "categories": "#d73765", "longitude": 546.7691409064773, "hours": [], "full_address": "10000 W Happy Valley Road\nPeoria, AZ 85383", "attributes": [], "open": true, "latitude": 328.7698938643265, "neighborhoods": [], "name": "El Pollo Loco", "review_count": 16, "type": "business", "city": "Peoria", "rest_id": 161, "state": "AZ"}, {"business_id": "ogfRcEN46rhAth7550bkYw", "stars": 4.0, "categories": "#fe3e64", "longitude": 278.171499714075, "hours": [], "full_address": "15814 N 83rd Ave\nPeoria, AZ 85382", "attributes": [], "open": false, "latitude": 516.4792565699136, "neighborhoods": [], "name": "3rd Place Neighborhood Grill", "review_count": 18, "type": "business", "city": "Peoria", "rest_id": 162, "state": "AZ"}, {"business_id": "I2fANye62hw2rRYvPeeh6Q", "stars": 4.0, "categories": "#ffa037", "longitude": 348.0716848695315, "hours": [], "full_address": "20283 N Lake Pleasant Rd\nSte 110\nPeoria, AZ 85383", "attributes": [], "open": true, "latitude": 445.7930062580617, "neighborhoods": [], "name": "Luckys pizza", "review_count": 4, "type": "business", "city": "Peoria", "rest_id": 163, "state": "AZ"}, {"business_id": "INZhYI1ffww8KztB-shHuQ", "stars": 2.0, "categories": "#4ec8f7", "longitude": 471.3880202907077, "hours": [], "full_address": "9501 W Peoria Ave\nSte 113\nPeoria, AZ 85345", "attributes": [], "open": true, "latitude": 625.5659060388525, "neighborhoods": [], "name": "J&M Chinese Cuisine", "review_count": 13, "type": "business", "city": "Peoria", "rest_id": 164, "state": "AZ"}, {"business_id": "DOmvaki70flMQ8W-yGbaHA", "stars": 2.0, "categories": "#d73765", "longitude": 392.60997169652046, "hours": [], "full_address": "9036 W Union Hills Rd\nPeoria, AZ 85382", "attributes": [], "open": true, "latitude": 460.4381439194928, "neighborhoods": [], "name": "Filiberto's", "review_count": 11, "type": "business", "city": "Peoria", "rest_id": 165, "state": "AZ"}, {"business_id": "KDQqjVfqmLDwddpt3yKVNQ", "stars": 4.0, "categories": "#fe3e64", "longitude": 277.4185271092718, "hours": [], "full_address": "20783 N 83rd Ave\nSte 112\nPeoria, AZ 85382", "attributes": [], "open": true, "latitude": 415.52961234532387, "neighborhoods": [], "name": "The Heights Sports Grill", "review_count": 36, "type": "business", "city": "Peoria", "rest_id": 166, "state": "AZ"}, {"business_id": "H4N1vgxdPKozOqpW-5qI2w", "stars": 3.5, "categories": "#ff9584", "longitude": 275.43990532379627, "hours": [], "full_address": "16100 Arrowhead Fountains Way\nPeoria, AZ 85382", "attributes": [], "open": false, "latitude": 505.8128048748148, "neighborhoods": [], "name": "Johnny Fox's Public House", "review_count": 92, "type": "business", "city": "Peoria", "rest_id": 167, "state": "AZ"}, {"business_id": "f1ffUvX5_rV8PhAceZo5tw", "stars": 3.5, "categories": "#d73765", "longitude": 651.0919051428881, "hours": [], "full_address": "10651 W Olive Ave\nSte 106\nPeoria, AZ 85345", "attributes": [], "open": true, "latitude": 661.5827481329331, "neighborhoods": [], "name": "Bibiano's Mexican Restaurant", "review_count": 29, "type": "business", "city": "Peoria", "rest_id": 168, "state": "AZ"}, {"business_id": "arKckMf7lGNYjXjKo6DXcA", "stars": 4.0, "categories": "#ffa037", "longitude": 158.05401465368058, "hours": [], "full_address": "7558 W Thunderbird Rd\nPeoria, AZ 85381", "attributes": [], "open": false, "latitude": 556.972656146343, "neighborhoods": [], "name": "Crispy Crust Pizza", "review_count": 12, "type": "business", "city": "Peoria", "rest_id": 169, "state": "AZ"}, {"business_id": "KT_r7qwU8sSfcR31zETGkg", "stars": 3.5, "categories": "#fe3e64", "longitude": 556.7716004114152, "hours": [], "full_address": "9918 W Happy Valley Rd\nSuite 1030\nPeoria, AZ 85383", "attributes": [], "open": true, "latitude": 325.4032972924275, "neighborhoods": [], "name": "Smashburger", "review_count": 39, "type": "business", "city": "Peoria", "rest_id": 170, "state": "AZ"}, {"business_id": "LEHCYKIR8PMHaAeDdu4luw", "stars": 2.0, "categories": "#d73765", "longitude": 275.6070419850732, "hours": [], "full_address": "8301 W Peoria Ave\nPeoria, AZ 85345", "attributes": [], "open": true, "latitude": 620.8759428228734, "neighborhoods": [], "name": "Taco Bell", "review_count": 5, "type": "business", "city": "Peoria", "rest_id": 171, "state": "AZ"}, {"business_id": "o_fzO-FTzLS1v8X2j7oieg", "stars": 2.5, "categories": "#d73765", "longitude": 280.49760603056677, "hours": [], "full_address": "13972 N 83rd Ave\nPeoria, AZ 85381", "attributes": [], "open": true, "latitude": 554.2441758626829, "neighborhoods": [], "name": "Filaberto's Mexican Food", "review_count": 3, "type": "business", "city": "Peoria", "rest_id": 172, "state": "AZ"}, {"business_id": "xc6wNKQMJ_Rhai7UKkVoDg", "stars": 2.5, "categories": "#fe3e64", "longitude": 891.3021681050732, "hours": [], "full_address": "28471 N Vistancia Blvd\nSte 101\nPeoria, AZ 85383", "attributes": [], "open": true, "latitude": 262.417474800553, "neighborhoods": [], "name": "Subway", "review_count": 3, "type": "business", "city": "Peoria", "rest_id": 173, "state": "AZ"}, {"business_id": "zkoqmd1Upan17jpSl3e4ZQ", "stars": 4.5, "categories": "#d73765", "longitude": 406.74391979215136, "hours": [], "full_address": "11808 N 91 Ave\nPeoria, AZ 85345", "attributes": [], "open": true, "latitude": 598.1637977250286, "neighborhoods": [], "name": "Waldo's Tacos", "review_count": 5, "type": "business", "city": "Peoria", "rest_id": 174, "state": "AZ"}, {"business_id": "Vf0tdlvXB0M7dR2Y2AeI8A", "stars": 4.5, "categories": "#fe3e64", "longitude": 34.01463150222938, "hours": [], "full_address": "6750 W Peoria Ave\nPeoria, AZ 85345", "attributes": [], "open": true, "latitude": 619.3306687473903, "neighborhoods": [], "name": "Gatti's New York Subs", "review_count": 29, "type": "business", "city": "Peoria", "rest_id": 175, "state": "AZ"}, {"business_id": "ta5o3_sT1o2AcP0imkjYjA", "stars": 4.0, "categories": "#d73765", "longitude": 298.97710731970596, "hours": [], "full_address": "8427 W Peoria Ave\nPeoria, AZ 85345", "attributes": [], "open": true, "latitude": 622.5633369958201, "neighborhoods": [], "name": "Ayala's AZ Kitchen Mexican Cafe", "review_count": 36, "type": "business", "city": "Peoria", "rest_id": 176, "state": "AZ"}, {"business_id": "OSsueRKTxM0MEbgIRsUebA", "stars": 3.0, "categories": "#fe3e64", "longitude": 519.7252300283781, "hours": [], "full_address": "9780 W Northern Ave\nSte 1110\nPeoria, AZ 85345", "attributes": [], "open": false, "latitude": 689.868210427225, "neighborhoods": [], "name": "Taps Signature Cuisine & Bar", "review_count": 40, "type": "business", "city": "Peoria", "rest_id": 177, "state": "AZ"}, {"business_id": "4dwtMbJhU3JEmw9v8UKx2w", "stars": 3.5, "categories": "#ffa037", "longitude": 271.63936298237655, "hours": [], "full_address": "15703 N 83rd Ave\nPeoria, AZ 85382", "attributes": [], "open": true, "latitude": 518.9916240704523, "neighborhoods": [], "name": "Humble Pie", "review_count": 121, "type": "business", "city": "Peoria", "rest_id": 178, "state": "AZ"}, {"business_id": "ne5RmdfFuFL02oJimNYcVw", "stars": 4.5, "categories": "#ffa037", "longitude": 570.655570196327, "hours": [], "full_address": "20283 N Lake Pleasant Rd\nSte 110\nPeoria, AZ 85382", "attributes": [], "open": true, "latitude": 426.92148760331406, "neighborhoods": [], "name": "CheezHeadz", "review_count": 47, "type": "business", "city": "Peoria", "rest_id": 179, "state": "AZ"}, {"business_id": "Ft7BXN0D9x_XcVd-VZeLeA", "stars": 3.5, "categories": "#4ec8f7", "longitude": 555.5224355386025, "hours": [], "full_address": "10146 W Lake Pleasant Pkwy\nSte 1030\nPeoria, AZ 85382", "attributes": [], "open": false, "latitude": 408.4442958221283, "neighborhoods": [], "name": "Oriental Buffet Grill & Sushi", "review_count": 20, "type": "business", "city": "Peoria", "rest_id": 180, "state": "AZ"}, {"business_id": "XjdTBvHGFQl0NdUuoGLdBw", "stars": 4.0, "categories": "#955542", "longitude": 534.655786717555, "hours": [], "full_address": "9940 W Happy Valley Pkwy 101\nPeoria, AZ 85383", "attributes": [], "open": true, "latitude": 328.86380887169776, "neighborhoods": [], "name": "Gyros Town", "review_count": 36, "type": "business", "city": "Peoria", "rest_id": 181, "state": "AZ"}, {"business_id": "OFI8tngHQ3UWw-fCLmDv5Q", "stars": 4.0, "categories": "#fe3e64", "longitude": 271.67569703918934, "hours": [], "full_address": "15703 N 83rd Ave\nPeoria, AZ 85382", "attributes": [], "open": true, "latitude": 518.863039220379, "neighborhoods": [], "name": "Barrel Grill & Modern Saloon", "review_count": 67, "type": "business", "city": "Peoria", "rest_id": 182, "state": "AZ"}, {"business_id": "shvwb7FSRbG8KQvIj4FIQQ", "stars": 4.0, "categories": "#fe3e64", "longitude": 168.76963760851723, "hours": [], "full_address": "7635 W Bell Rd\nSte 102\nPeoria, AZ 85382", "attributes": [], "open": true, "latitude": 495.79640892749217, "neighborhoods": [], "name": "Which Wich", "review_count": 25, "type": "business", "city": "Peoria", "rest_id": 183, "state": "AZ"}, {"business_id": "PNHXpLc799mkFipy5WlN6A", "stars": 3.5, "categories": "#fe3e64", "longitude": 170.36907986590973, "hours": [], "full_address": "7635 W Bell Rd\nPeoria, AZ 85382", "attributes": [], "open": true, "latitude": 495.4380377606912, "neighborhoods": [], "name": "Five Guys Burgers and Fries", "review_count": 34, "type": "business", "city": "Peoria", "rest_id": 184, "state": "AZ"}, {"business_id": "iRIqMJbQ_BBFkQC5oU9SOg", "stars": 2.0, "categories": "#955542", "longitude": 523.8783787892589, "hours": [], "full_address": "9864 W Peoria Ave\nPeoria, AZ 85345", "attributes": [], "open": false, "latitude": 624.5933985148471, "neighborhoods": [], "name": "Nineveh Restaurant", "review_count": 3, "type": "business", "city": "Peoria", "rest_id": 185, "state": "AZ"}, {"business_id": "goVoVbERgeYeUmixUyJ6nw", "stars": 3.0, "categories": "#00b5e9", "longitude": 277.93968843171064, "hours": [], "full_address": "16049B N Arrowhead Fountains Dr\nPeoria, AZ 85382", "attributes": [], "open": false, "latitude": 511.6036348774136, "neighborhoods": [], "name": "Ooka Hibachi", "review_count": 16, "type": "business", "city": "Peoria", "rest_id": 186, "state": "AZ"}, {"business_id": "1N-JHg3TBXq8-Sx-vt6rdw", "stars": 3.5, "categories": "#d73765", "longitude": 140.50175849420546, "hours": [], "full_address": "7446 W Cactus Rd\nPeoria, AZ 85345", "attributes": [], "open": true, "latitude": 588.7804874812348, "neighborhoods": [], "name": "Julioberto's", "review_count": 7, "type": "business", "city": "Peoria", "rest_id": 187, "state": "AZ"}, {"business_id": "LqBkt9cmVMYrCBrxqbPuCw", "stars": 3.5, "categories": "#d73765", "longitude": 291.44505734471784, "hours": [], "full_address": "8395 W Thunderbird Rd\nPeoria, AZ 85381", "attributes": [], "open": true, "latitude": 558.0198331183667, "neighborhoods": [], "name": "Brushfire Tacos Y Tapas", "review_count": 104, "type": "business", "city": "Peoria", "rest_id": 188, "state": "AZ"}, {"business_id": "Tuk5vyUoBB96CuCe7lcNug", "stars": 4.0, "categories": "#fe3e64", "longitude": 647.9767136936107, "hours": [], "full_address": "8411 N 107th Ave\nPeoria, AZ 85345", "attributes": [], "open": true, "latitude": 679.7387616399874, "neighborhoods": [], "name": "Peoria Pines Restaurant and Bar", "review_count": 5, "type": "business", "city": "Peoria", "rest_id": 189, "state": "AZ"}, {"business_id": "OB_7Q8mHp31nz5ErAJ4cDA", "stars": 4.0, "categories": "#fe3e64", "longitude": 403.2849175847305, "hours": [], "full_address": "9098 W Pinnacle Peak Rd\nPeoria, AZ 85383", "attributes": [], "open": true, "latitude": 363.0154938772926, "neighborhoods": [], "name": "LW's Hide-A-Way", "review_count": 49, "type": "business", "city": "Peoria", "rest_id": 190, "state": "AZ"}, {"business_id": "3Wxp8wNfUuYUohTpNMLotQ", "stars": 3.5, "categories": "#00c2d1", "longitude": 151.6795304569862, "hours": [], "full_address": "7505 W Cactus Rd\nPeoria, AZ 85381", "attributes": [], "open": true, "latitude": 590.5681205716394, "neighborhoods": [], "name": "Pho Tan Thanh", "review_count": 28, "type": "business", "city": "Peoria", "rest_id": 191, "state": "AZ"}, {"business_id": "dHDJmPf0SIkL3ZJ8mpHffQ", "stars": 1.5, "categories": "#fe3e64", "longitude": 507.5601671283805, "hours": [], "full_address": "N 98th Ave\nPeoria, AZ 85345", "attributes": [], "open": true, "latitude": 683.0124112363671, "neighborhoods": [], "name": "Carnivore Peri Peri Grill", "review_count": 7, "type": "business", "city": "Peoria", "rest_id": 192, "state": "AZ"}, {"business_id": "66jI6z-JuLasvd692ymycg", "stars": 2.0, "categories": "#fe3e64", "longitude": 517.1042572391727, "hours": [], "full_address": "9824 W Northern Ave\nPeoria, AZ 85345", "attributes": [], "open": true, "latitude": 688.5165368875374, "neighborhoods": [], "name": "Toby Keith's I Love This Bar & Grill", "review_count": 123, "type": "business", "city": "Peoria", "rest_id": 193, "state": "AZ"}, {"business_id": "nZmmvY-noT5f3F6fVfjRsw", "stars": 4.0, "categories": "#fe3e64", "longitude": 323.87320303985626, "hours": [], "full_address": "18823 N Country Club Pkwy\nPeoria, AZ 85382", "attributes": [], "open": true, "latitude": 461.6675955562017, "neighborhoods": [], "name": "The Links Neighborhood Grill", "review_count": 3, "type": "business", "city": "Peoria", "rest_id": 194, "state": "AZ"}, {"business_id": "_DjAApQ5qhhHP5H_gzX57A", "stars": 1.0, "categories": "#d73765", "longitude": 512.7652441760167, "hours": [], "full_address": "9832 W Northern Ave\nSte 1650\nPeoria, AZ 85345", "attributes": [], "open": true, "latitude": 689.6995175082394, "neighborhoods": [], "name": "Ocarnivores", "review_count": 4, "type": "business", "city": "Peoria", "rest_id": 195, "state": "AZ"}, {"business_id": "B4gZkGO_MtZRXt20yyM-EA", "stars": 4.0, "categories": "#00b5e9", "longitude": 534.655786717555, "hours": [], "full_address": "9940 W Happy Valley Rd\nSte 1060\nPeoria, AZ 85383", "attributes": [], "open": true, "latitude": 328.86380887169776, "neighborhoods": [], "name": "Sushi Doraku", "review_count": 28, "type": "business", "city": "Peoria", "rest_id": 196, "state": "AZ"}, {"business_id": "pJYBHoAJyE_nXhYDqaP8RQ", "stars": 4.0, "categories": "#fe3e64", "longitude": 535.8448586720323, "hours": [], "full_address": "24762 N Lake Pleasant Pkwy\nSte 101\nPeoria, AZ 85383", "attributes": [], "open": true, "latitude": 335.20228595256344, "neighborhoods": [], "name": "The Haymaker Restaurant Co", "review_count": 129, "type": "business", "city": "Peoria", "rest_id": 197, "state": "AZ"}, {"business_id": "30Xt5MnKfa0PtsRURwP2vQ", "stars": 4.0, "categories": "#ffa037", "longitude": 880.9055410919602, "hours": [], "full_address": "28465 N Vistancia Blvd\nPeoria, AZ 85383", "attributes": [], "open": true, "latitude": 261.51264351343576, "neighborhoods": [], "name": "Stevie's Pizza", "review_count": 20, "type": "business", "city": "Peoria", "rest_id": 198, "state": "AZ"}, {"business_id": "KxQKPEBfRGXpWc3OPTUtMA", "stars": 3.5, "categories": "#ffa037", "longitude": 526.8635848960309, "hours": [], "full_address": "10845 N 99th Ave\nPeoria, AZ 85345", "attributes": [], "open": true, "latitude": 620.2939271856765, "neighborhoods": [], "name": "Domino's Pizza", "review_count": 4, "type": "business", "city": "Peoria", "rest_id": 199, "state": "AZ"}, {"business_id": "q96ekniISDByle9Su4tuCw", "stars": 4.5, "categories": "#fe3e64", "longitude": 368.79590418780265, "hours": [], "full_address": "Peoria, AZ 85345", "attributes": [], "open": true, "latitude": 646.8868532938559, "neighborhoods": [], "name": "JJ's Louisiana BBQ", "review_count": 9, "type": "business", "city": "Peoria", "rest_id": 200, "state": "AZ"}, {"business_id": "otsfV9Jviw6Q56KYrFo2Dg", "stars": 3.0, "categories": "#4ec8f7", "longitude": 153.7426154737064, "hours": [], "full_address": "13686 N 75th Ave\nPeoria, AZ 85381", "attributes": [], "open": true, "latitude": 559.9461244075122, "neighborhoods": [], "name": "8 Fortune Cusine", "review_count": 10, "type": "business", "city": "Peoria", "rest_id": 201, "state": "AZ"}, {"business_id": "0yX5ddNYV864ioYN2UujJw", "stars": 4.5, "categories": "#ffa037", "longitude": 542.4399364107843, "hours": [], "full_address": "9980 W Happy Valley Rd\nSte 1130\nPeoria, AZ 85383", "attributes": [], "open": true, "latitude": 325.4349281156546, "neighborhoods": [], "name": "Papa Murphy's", "review_count": 5, "type": "business", "city": "Peoria", "rest_id": 202, "state": "AZ"}, {"business_id": "ksMGDW0FbPCX3tXXZ2_onA", "stars": 4.0, "categories": "#d73765", "longitude": 512.7652441760167, "hours": [], "full_address": "9832 W Northern Ave\nSte 1650\nPeoria, AZ 85345", "attributes": [], "open": true, "latitude": 689.6995175082394, "neighborhoods": [], "name": "Beach Club Cantina", "review_count": 45, "type": "business", "city": "Peoria", "rest_id": 203, "state": "AZ"}, {"business_id": "CKdj1E2lfHJkZZP1UdXI5Q", "stars": 3.5, "categories": "#00b5e9", "longitude": 280.03979691489087, "hours": [], "full_address": "16055 N Arrowhead Fountain\nPeoria, AZ 85382", "attributes": [], "open": true, "latitude": 511.3487210518243, "neighborhoods": [], "name": "Sumo Sushi & Grill", "review_count": 29, "type": "business", "city": "Peoria", "rest_id": 204, "state": "AZ"}, {"business_id": "UsGlnlPce4CBnIGUFna5ng", "stars": 4.0, "categories": "#fe3e64", "longitude": 956.8480798933904, "hours": [], "full_address": "12575 W Golf Club Dr\nPeoria, AZ 85383", "attributes": [], "open": true, "latitude": 257.54659044465825, "neighborhoods": [], "name": "V's Taproom", "review_count": 16, "type": "business", "city": "Peoria", "rest_id": 205, "state": "AZ"}, {"business_id": "6Xrk-YCp_mOV-Zj8qhPHOQ", "stars": 4.0, "categories": "#00b5e9", "longitude": 278.03197693598, "hours": [], "full_address": "16049B N Arrowhead Fountains Center Dr\nPeoria, AZ 85382", "attributes": [], "open": true, "latitude": 511.6692808272037, "neighborhoods": [], "name": "Osaka Japanese Steakhouse", "review_count": 55, "type": "business", "city": "Peoria", "rest_id": 206, "state": "AZ"}, {"business_id": "6dtTSBjc7rQBBZEtKsG2vg", "stars": 3.5, "categories": "#fe3e64", "longitude": 522.1570050471815, "hours": [], "full_address": "25101 N Lake Pleasant Pkwy\nPeoria, AZ 85383", "attributes": [], "open": true, "latitude": 328.9754614088449, "neighborhoods": [], "name": "Jimmy John's", "review_count": 5, "type": "business", "city": "Peoria", "rest_id": 207, "state": "AZ"}, {"business_id": "XKwbA7WVROVbLlPPzHZHgw", "stars": 3.0, "categories": "#fe3e64", "longitude": 279.7055235922339, "hours": [], "full_address": "15814 N 83rd Ave\nPeoria, AZ 85382", "attributes": [], "open": false, "latitude": 516.5394884207378, "neighborhoods": [], "name": "Draft House Eatery & Lounge", "review_count": 52, "type": "business", "city": "Peoria", "rest_id": 208, "state": "AZ"}, {"business_id": "ASyaFw0TGprG1em3ukLxjw", "stars": 3.0, "categories": "#4ec8f7", "longitude": 386.99926664522667, "hours": [], "full_address": "8987 W Olive Ave\nSte 126\nPeoria, AZ 85345", "attributes": [], "open": true, "latitude": 657.3229801960822, "neighborhoods": [], "name": "Best China", "review_count": 4, "type": "business", "city": "Peoria", "rest_id": 209, "state": "AZ"}, {"business_id": "Iis83i7vOn_1QVKbKUifHw", "stars": 5.0, "categories": "#fe3e64", "longitude": 304.1685173554153, "hours": [], "full_address": "8455 W Peoria Ave\nPeoria, AZ 85345", "attributes": [], "open": true, "latitude": 622.826597557293, "neighborhoods": [], "name": "Coop's Bar & Grill", "review_count": 4, "type": "business", "city": "Peoria", "rest_id": 210, "state": "AZ"}, {"business_id": "qAI8YH9WOyHL_w3KJjJ2Yg", "stars": 3.5, "categories": "#d73765", "longitude": 579.6238380368268, "hours": [], "full_address": "20429 N Lake Pleasant Rd\nPeoria, AZ 85382", "attributes": [], "open": true, "latitude": 424.1389494958972, "neighborhoods": [], "name": "Federico's Mexican Food", "review_count": 5, "type": "business", "city": "Peoria", "rest_id": 211, "state": "AZ"}, {"business_id": "p2nJVL3b1KCiRHqZvN_f5g", "stars": 3.5, "categories": "#955542", "longitude": 526.9318929227895, "hours": [], "full_address": "9858 W Peoria Ave\nPeoria, AZ 85345", "attributes": [], "open": true, "latitude": 621.9589882004474, "neighborhoods": [], "name": "Bb's Restaurant", "review_count": 3, "type": "business", "city": "Peoria", "rest_id": 212, "state": "AZ"}, {"business_id": "9wFPLKQeX-le6wxNB-7Btw", "stars": 4.5, "categories": "#ffa037", "longitude": 556.7716004114152, "hours": [], "full_address": "9980 W Happy Valley Rd\nSte 1130\nPeoria, AZ 85383", "attributes": [], "open": true, "latitude": 325.4032972924275, "neighborhoods": [], "name": "Papa Murphy's Take N' Bake Pizza", "review_count": 3, "type": "business", "city": "Peoria", "rest_id": 213, "state": "AZ"}, {"business_id": "dLe4e6cr_A0ICjGPpDn9TA", "stars": 4.5, "categories": "#fe3e64", "longitude": 154.69529444296387, "hours": [], "full_address": "7557 W Greenway Rd\nSte 104\nPeoria, AZ 85381", "attributes": [], "open": true, "latitude": 525.0849668519259, "neighborhoods": [], "name": "Dash Grill", "review_count": 27, "type": "business", "city": "Peoria", "rest_id": 214, "state": "AZ"}, {"business_id": "l408xFaILd8LiX_XxRJM2A", "stars": 4.0, "categories": "#fe3e64", "longitude": 226.70140153065344, "hours": [], "full_address": "8215 W Bell Rd\nSte 125\nPeoria, AZ 85382", "attributes": [], "open": true, "latitude": 497.8653587902139, "neighborhoods": [], "name": "McAlister's Deli", "review_count": 12, "type": "business", "city": "Peoria", "rest_id": 215, "state": "AZ"}]