[{"type": "business", "longitude": 8.25536, "full_address": "Industriestr. 6\n76467 Bietigheim", "rest_id": 13865, "categories": ["Bakeries", "Grocery", "Food", "Cafes", "Coffee & Tea", "Restaurants"], "state": "BW", "open": true, "business_id": "Tm3w1r_ysQSxu-hnV9BetA", "neighborhoods": [], "review_count": 3, "attributes": {"Price Range": 2}, "hours": {}, "latitude": 48.9109, "city": "Bietigheim", "name": "F\u00f6ry B\u00e4ckerei und Caf\u00e9", "stars": 5.0}, {"type": "business", "longitude": 8.25331, "full_address": "Badenstr. 31\n76467 Bietigheim", "rest_id": 20031, "categories": ["Kebab", "Restaurants"], "state": "BW", "open": true, "business_id": "nLNfReYJK-bPopI9I5nDtw", "neighborhoods": [], "review_count": 3, "attributes": {"Good For Groups": false, "Accepts Credit Cards": false, "Alcohol": "beer_and_wine"}, "hours": {}, "latitude": 48.9109, "city": "Bietigheim", "name": "Saray Kebap", "stars": 3.0}, {"type": "business", "longitude": 8.25344, "full_address": "Kirchstr. 1\n76467 Bietigheim", "rest_id": 20882, "categories": ["Restaurants"], "state": "BW", "open": true, "business_id": "uh-8pp-GZFwrB6YV--tmzA", "neighborhoods": [], "review_count": 5, "attributes": {}, "hours": {}, "latitude": 48.91349, "city": "Bietigheim", "name": "Gasthaus zum Hirsch", "stars": 4.0}]