[{"type": "business", "longitude": -3.0537054, "full_address": "198 High Street\nMusselburgh EH21 7DX", "rest_id": 10264, "categories": ["Restaurants", "Italian"], "state": "ELN", "open": true, "business_id": "6URo94G7HNmMeUYchlFX7Q", "neighborhoods": [], "review_count": 8, "attributes": {"Ambience": {"classy": false, "trendy": false, "romantic": false, "casual": false, "upscale": false, "intimate": false, "touristy": false}, "Noise Level": "average", "Outdoor Seating": false, "Good for Kids": false, "Alcohol": "full_bar"}, "hours": {}, "latitude": 55.9418895, "city": "Musselburgh", "name": "Caprice Restaurant", "stars": 4.0}, {"type": "business", "longitude": -3.0697199, "full_address": "131 New Street\nMusselburgh EH21 6DH", "rest_id": 10320, "categories": ["British", "Restaurants"], "state": "ELN", "open": true, "business_id": "FBzPxHL9tJYGw0uckrv3vg", "neighborhoods": [], "review_count": 4, "attributes": {}, "hours": {}, "latitude": 55.9449413, "city": "Musselburgh", "name": "Quayside", "stars": 3.5}, {"type": "business", "longitude": -3.0580441, "full_address": "32 Bridge St\nMusselburgh EH21 6AG", "rest_id": 10333, "categories": ["Thai", "Restaurants"], "state": "ELN", "open": true, "business_id": "tdqZK2DXrmX5jyddy4uxmg", "neighborhoods": [], "review_count": 6, "attributes": {"Alcohol": "full_bar", "Price Range": 2, "Takes Reservations": true, "Attire": "casual", "Good For Groups": true, "Take-out": true, "Good for Kids": true, "Parking": {"valet": false, "garage": false, "street": false, "lot": false}}, "hours": {}, "latitude": 55.9436788, "city": "Musselburgh", "name": "Lanna Thai", "stars": 4.0}, {"type": "business", "longitude": -3.0603894, "full_address": "Station Rd\nEskmills\nMusselburgh EH21 7PQ", "rest_id": 14731, "categories": ["British", "Restaurants"], "state": "ELN", "open": false, "business_id": "-rs3Rufq-9jy8z3eWWNd-Q", "neighborhoods": [], "review_count": 5, "attributes": {"Ambience": {"classy": false, "trendy": false, "romantic": false, "casual": false, "upscale": false, "touristy": false, "hipster": false, "intimate": false}, "Alcohol": "full_bar", "Price Range": 2, "Attire": "casual", "Accepts Credit Cards": true, "Good for Kids": true, "Delivery": false, "Waiter Service": true, "Good For": {"brunch": false, "dessert": false, "latenight": false, "breakfast": false, "lunch": false, "dinner": false}, "Parking": {"valet": false, "garage": false, "street": false, "lot": true}, "Takes Reservations": true, "Has TV": false, "Good For Groups": true, "Take-out": false, "Outdoor Seating": true, "Noise Level": "average"}, "hours": {}, "latitude": 55.9390685, "city": "Musselburgh", "name": "The Birdcage Bar & Restaurant", "stars": 3.5}, {"type": "business", "longitude": -3.0586136, "full_address": "102 New Street\nMusselburgh EH21 6JQ", "rest_id": 15061, "categories": ["Gastropubs", "Restaurants"], "state": "ELN", "open": false, "business_id": "VpFnZcRXUTB9A2M56691cQ", "neighborhoods": [], "review_count": 6, "attributes": {"Takes Reservations": true, "Good For": {"brunch": false, "dessert": false, "latenight": false, "breakfast": false, "lunch": false, "dinner": false}, "Alcohol": "beer_and_wine", "Price Range": 2, "Good For Kids": true, "Accepts Credit Cards": true, "Good For Groups": true, "Wheelchair Accessible": true, "Outdoor Seating": false, "Parking": {"garage": false, "valet": false, "validated": false, "street": false, "lot": false}}, "hours": {}, "latitude": 55.945154, "city": "Musselburgh", "name": "Restaurant 102", "stars": 4.0}, {"type": "business", "longitude": -3.0603894, "full_address": "Stuart House Station Road\nMusselburgh EH21 7PQ", "rest_id": 19838, "categories": ["British", "Restaurants"], "state": "ELN", "open": false, "business_id": "aAh-R33lk169LlgCZ7E9Yg", "neighborhoods": [], "review_count": 3, "attributes": {}, "hours": {}, "latitude": 55.9390685, "city": "Musselburgh", "name": "The Glasshouse At Eskmills", "stars": 3.5}]